ACCNUM,DATE,TIME,HOUR,STREET1,STREET2,ROAD_CLASS,LATITUDE,LONGITUDE,LOCCOORD,TRAFFCTL,VISIBILITY,LIGHT,RDSFCOND,ACCLASS,INVTYPE,INVAGE,Age_mid,INJURY,VEHTYPE,DRIVACT,DRIVCOND,PEDESTRIAN,CYCLIST,AUTOMOBILE,MOTORCYCLE,TRUCK,TRSN_CITY_VEH,EMERG_VEH,SPEEDING,AG_DRIV,REDLIGHT,ALCOHOL,DISABILITY,Hood_ID,Neighbourhood
893184,2006/01/01 05:00:00+00,236,2,WOODBINE AVE,O CONNOR DR,Major Arterial,43.699595,-79.318797,Intersection,No Control,Clear,Dark,Wet,Non-Fatal Injury,Passenger,50 to 54,52,Major,Unknown,Unknown,Unknown,No,No,Yes,No,No,No,No,Yes,Yes,No,Yes,No,60,Woodbine-Lumsden (60)
909646,2006/01/01 05:00:00+00,315,3,DANFORTH AVE,WEST LYNN AVE,Major Arterial,43.684874,-79.316188,Intersection,No Control,Snow,"Dark, artificial",Slush,Non-Fatal Injury,Passenger,10 to 14,12,Minor,Unknown,Unknown,Unknown,No,No,Yes,No,No,No,No,No,No,No,No,No,64,Woodbine Corridor (64)
884090,2006/01/02 05:00:00+00,705,7,BATHURST ST,DUNDAS ST W,Major Arterial,43.652892,-79.406253,Mid-Block,No Control,Other,"Dark, artificial",Wet,Non-Fatal Injury,Driver,30 to 34,32,None,"Automobile, Station Wagon",Improper Lane Change,Inattentive,Yes,No,Yes,No,No,No,No,No,No,No,No,No,78,Kensington-Chinatown (78)
885782,2006/01/04 05:00:00+00,1940,19,DUFFERIN ST,SYLVAN AVE,Major Arterial,43.65514500000001,-79.43359,Mid-Block,Traffic Signal,Rain,Dark,Wet,Non-Fatal Injury,Driver,25 to 29,27,None,"Automobile, Station Wagon",Driving Properly,Normal,Yes,No,Yes,No,No,No,No,No,No,No,No,No,83,Dufferin Grove (83)
882079,2006/01/06 05:00:00+00,2210,22,DON MILLS RD,LEITH HILL RD,Major Arterial,43.777056,-79.347858,Intersection,Traffic Signal,Clear,"Dark, artificial",Dry,Non-Fatal Injury,Driver,50 to 54,52,None,"Automobile, Station Wagon",Driving Properly,Normal,Yes,No,Yes,No,No,No,No,No,No,No,No,No,47,Don Valley Village (47)
882024,2006/01/07 05:00:00+00,2325,23,STEELES AVE E,NINTH LINE ST,Minor Arterial,43.842745,-79.22479,Mid-Block,No Control,Clear,Dark,Wet,Fatal,Driver,50 to 54,52,Fatal,"Automobile, Station Wagon",Lost control,Unknown,No,No,Yes,No,No,No,No,No,No,No,No,No,131,Rouge (131)
887568,2006/01/08 05:00:00+00,1507,15,PARLIAMENT ST,FRONT ST E,Minor Arterial,43.651496,-79.362697,Intersection,Traffic Signal,Clear,Daylight,Dry,Non-Fatal Injury,Driver,40 to 44,42,Minimal,"Automobile, Station Wagon",Disobeyed Traffic Control,Normal,No,No,Yes,No,No,No,No,No,Yes,Yes,No,No,77,Waterfront Communities-The Island (77)
882497,2006/01/08 05:00:00+00,1828,18,ISLINGTON AVE,GOLFDOWN DR,Major Arterial,43.721445,-79.55809,Intersection,Pedestrian Crossover,Clear,Dark,Dry,Fatal,Pedestrian,10 to 14,12,Fatal,Other,Unknown,Unknown,Yes,No,Yes,No,No,No,No,No,Yes,No,No,No,5,Elms-Old Rexdale (5)
882174,2006/01/09 05:00:00+00,1435,14,KENNEDY RD,GLAMORGAN AVE,Major Arterial,43.76944500000001,-79.28229,Intersection,Traffic Signal,Clear,Daylight,Dry,Fatal,Pedestrian,75 to 79,77,Fatal,Other,Unknown,Unknown,Yes,No,Yes,No,No,No,No,No,No,No,No,No,126,Dorset Park (126)
886039,2006/01/09 05:00:00+00,1820,18,FINCH AVE E,MIDDLEFIELD RD,Major Arterial,43.809817,-79.257663,Intersection,Traffic Signal,Clear,"Dark, artificial",Dry,Non-Fatal Injury,Vehicle Owner,unknown,unknown,Unknown,Unknown,Unknown,Unknown,Yes,No,No,No,No,Yes,No,No,No,No,No,No,129,Agincourt North (129)
884135,2006/01/10 05:00:00+00,804,8,BRIMLEY RD,GULLY DR,Major Arterial,43.743645,-79.25129,Intersection,No Control,Clear,Daylight,Dry,Non-Fatal Injury,Driver,80 to 84,82,Minor,"Automobile, Station Wagon",Other,Medical or Physical Disability,No,No,Yes,No,No,No,No,No,No,No,No,Yes,127,Bendale (127)
882501,2006/01/11 05:00:00+00,1120,11,BARTLEY DR,JINNAH CRT,Collector,43.722045,-79.30799,Intersection,No Control,Clear,Daylight,Wet,Fatal,Passenger,15 to 19,17,Fatal,Other,Unknown,Unknown,No,No,Yes,No,No,No,No,Yes,Yes,No,No,No,43,Victoria Village (43)
882912,2006/01/14 05:00:00+00,904,9,WESTON RD,CORONADO CRT,Major Arterial,43.741045,-79.53989,Mid-Block,Pedestrian Crossover,Strong wind,Daylight,Ice,Non-Fatal Injury,Vehicle Owner,unknown,unknown,Unknown,Other,Unknown,Unknown,Yes,No,Yes,No,No,No,No,Yes,Yes,No,No,No,22,Humbermede (22)
886573,2006/01/14 05:00:00+00,2058,20,EGLINTON AVE W,BRAEMAR AVE,Major Arterial,43.704345,-79.40959000000002,Intersection,No Control,Clear,Dark,Dry,Non-Fatal Injury,Driver,20 to 24,22,None,"Automobile, Station Wagon",Driving Properly,Normal,Yes,No,Yes,No,No,No,No,No,No,No,No,No,100,Yonge-Eglinton (100)
886552,2006/01/15 05:00:00+00,1812,18,3367 DUNDAS ST W,Unknown,Major Arterial,43.665545,-79.48289,Mid-Block,No Control,Clear,Dark,Dry,Non-Fatal Injury,Driver,25 to 29,27,None,"Automobile, Station Wagon",Driving Properly,Normal,Yes,No,Yes,No,No,No,No,No,No,No,No,No,89,Runnymede-Bloor West Village (89)
887039,2006/01/17 05:00:00+00,1940,19,SHEPPARD AVE W,SENLAC RD,Major Arterial,43.758945,-79.42259,Intersection,Traffic Signal,Rain,Dark,Wet,Non-Fatal Injury,Driver,40 to 44,42,None,"Automobile, Station Wagon",Driving Properly,Normal,Yes,No,Yes,No,No,No,No,No,No,No,No,No,38,Lansing-Westgate (38)
886747,2006/01/17 05:00:00+00,2200,22,LAWRENCE AVE E,COLLINSGROVE RD,Minor Arterial,43.769145,-79.18279,Intersection,Traffic Signal,Rain,Dark,Wet,Non-Fatal Injury,Driver,55 to 59,57,None,"Automobile, Station Wagon",Failed to Yield Right of Way,Normal,Yes,No,Yes,No,No,No,No,No,Yes,No,No,No,136,West Hill (136)
892999,2006/01/17 05:00:00+00,2350,23,KING EDWARD AVE,BURRELL AVE,Local,43.690445,-79.31139,Mid-Block,No Control,Rain,Dark,Wet,Non-Fatal Injury,Vehicle Owner,unknown,unknown,None,Other,Unknown,Unknown,Yes,No,Yes,No,No,No,No,No,No,No,No,No,60,Woodbine-Lumsden (60)
886230,2006/01/21 05:00:00+00,1829,18,MIDLAND AVE,GOODLAND GT,Major Arterial,43.779345,-79.27559000000002,Intersection,No Control,Clear,Dusk,Dry,Fatal,Pedestrian,50 to 54,52,Fatal,Other,Unknown,Unknown,Yes,No,Yes,No,No,No,No,Yes,Yes,No,No,No,128,Agincourt South-Malvern West (128)
884310,2006/01/22 05:00:00+00,230,2,460 CORONATION DR,Unknown,Collector,43.765045,-79.17039,Mid-Block,No Control,Clear,Dark,Dry,Non-Fatal Injury,Pedestrian,20 to 24,22,Major,Other,Unknown,Unknown,Yes,No,Yes,No,No,No,No,No,Yes,No,No,No,136,West Hill (136)
884326,2006/01/22 05:00:00+00,1800,18,YONGE ST,CUMBERLAND ST,Major Arterial,43.671145,-79.38719,Intersection,No Control,Clear,Dark,Dry,Non-Fatal Injury,Pedestrian,85 to 89,87,Major,Other,Unknown,Unknown,Yes,No,Yes,No,No,No,No,No,No,No,No,No,98,Rosedale-Moore Park (98)
884560,2006/01/24 05:00:00+00,145,1,WARDEN AVE,LAWRENCE AVE E,Major Arterial,43.745345,-79.29469,Intersection,Traffic Signal,Clear,Dawn,Dry,Fatal,Driver,35 to 39,37,Fatal,"Automobile, Station Wagon",Exceeding Speed Limit,Unknown,No,No,Yes,No,No,No,No,Yes,Yes,No,No,No,119,Wexford/Maryvale (119)
884756,2006/01/24 05:00:00+00,754,7,DEAN PARK RD,BRAYMORE BLVD,Collector,43.803445,-79.17069000000002,Intersection,Stop Sign,Clear,Daylight,Wet,Fatal,Pedestrian,75 to 79,77,Fatal,Other,Unknown,Unknown,Yes,No,Yes,No,No,No,No,No,Yes,No,No,No,131,Rouge (131)
884714,2006/01/24 05:00:00+00,2220,22,MOUNT PLEASANT RD,WHITEHALL RD,Major Arterial,43.68404500000001,-79.38349000000002,Intersection,No Control,Rain,Dark,Wet,Fatal,Driver,45 to 49,47,Fatal,"Automobile, Station Wagon",Driving Properly,Normal,No,No,Yes,No,No,No,No,Yes,Yes,No,No,No,98,Rosedale-Moore Park (98)
887237,2006/01/27 05:00:00+00,2046,20,BLOOR ST W,CHRISTIE ST,Major Arterial,43.663545,-79.41839,Intersection,No Control,Clear,Dark,Dry,Non-Fatal Injury,Vehicle Owner,unknown,unknown,Unknown,Other,Unknown,Unknown,Yes,No,Yes,No,No,No,No,Yes,Yes,No,No,No,80,Palmerston-Little Italy (80)
890325,2006/01/27 05:00:00+00,2301,23,NORTH YORK BLVD,BEECROFT RD,Collector,43.766545,-79.41429000000002,Mid-Block,Pedestrian Crossover,Clear,Dark,Dry,Non-Fatal Injury,Passenger,20 to 24,22,Major,Other,Unknown,Unknown,No,No,Yes,No,No,No,No,Yes,Yes,No,No,No,38,Lansing-Westgate (38)
885650,2006/01/29 05:00:00+00,2048,20,F G GARDINER XY W  W,KIPLING AVE,Unknown,43.618245,-79.52439,Mid-Block,No Control,Rain,Dark,Wet,Fatal,Pedestrian,15 to 19,17,Fatal,Other,Unknown,Unknown,Yes,No,Yes,No,No,No,No,No,No,No,No,No,17,Mimico (includes Humber Bay Shores) (17)
889323,2006/01/29 05:00:00+00,2130,21,ST CLAIR AVE W,SPADINA RD,Major Arterial,43.684645,-79.41119,Intersection,Traffic Signal,Rain,Dark,Wet,Non-Fatal Injury,Driver,40 to 44,42,None,"Automobile, Station Wagon",Failed to Yield Right of Way,Normal,Yes,No,Yes,No,No,No,No,No,Yes,No,No,No,96,Casa Loma (96)
889773,2006/02/02 05:00:00+00,1421,14,SPADINA AVE,NASSAU ST,Major Arterial,43.655845,-79.39919,Intersection,Traffic Signal,Clear,Daylight,Dry,Non-Fatal Injury,Passenger,50 to 54,52,Major,Other,Unknown,Unknown,No,No,Yes,No,No,Yes,No,No,No,No,No,No,78,Kensington-Chinatown (78)
889954,2006/02/03 05:00:00+00,758,7,BIRCHMOUNT RD,L AMOREAUX DR,Major Arterial,43.800645,-79.30709,Intersection,Traffic Signal,Rain,Daylight,Wet,Non-Fatal Injury,Driver,70 to 74,72,None,"Automobile, Station Wagon",Failed to Yield Right of Way,Normal,Yes,No,Yes,No,No,No,No,No,Yes,No,No,No,117,L'Amoreaux (117)
918360,2006/07/18 04:00:00+00,1020,10,YONGE ST,LORD SEATON RD,Major Arterial,43.752445,-79.40809,Intersection,Traffic Signal,Clear,Daylight,Dry,Non-Fatal Injury,Driver,50 to 54,52,Major,"Automobile, Station Wagon",Failed to Yield Right of Way,Inattentive,No,No,Yes,No,No,No,No,No,Yes,No,No,No,40,St.Andrew-Windfields (40)
914314,2006/07/19 04:00:00+00,2230,22,BLOOR ST W,LANSDOWNE AVE,Major Arterial,43.658345,-79.44269,Intersection,Traffic Signal,Clear,Dark,Dry,Fatal,Pedestrian,45 to 49,47,Fatal,Other,Unknown,Unknown,Yes,No,Yes,No,No,No,No,No,Yes,No,No,No,93,Dovercourt-Wallace Emerson-Junction (93)
918378,2006/07/20 04:00:00+00,1623,16,EGLINTON AVE W,LLOYD MANOR RD,Major Arterial,43.675745,-79.55709,Mid-Block,No Control,Rain,Daylight,Wet,Non-Fatal Injury,Motorcycle Driver,40 to 44,42,Major,Motorcycle,Driving Properly,Normal,No,No,Yes,Yes,No,No,No,No,No,No,No,No,10,Princess-Rosethorn (10)
922819,2006/07/20 04:00:00+00,1624,16,70 MILNER AVE,Unknown,Minor Arterial,43.784045,-79.25269,Mid-Block,No Control,Clear,Daylight,Dry,Non-Fatal Injury,Vehicle Owner,unknown,unknown,Unknown,Other,Unknown,Unknown,Yes,No,Yes,No,No,No,No,No,No,No,No,No,128,Agincourt South-Malvern West (128)
916031,2006/07/20 04:00:00+00,1715,17,ST MARKS RD,BROOKSIDE AVE,Collector,43.659845,-79.49149,Intersection,Stop Sign,Rain,Daylight,Wet,Non-Fatal Injury,Vehicle Owner,unknown,unknown,Unknown,Other,Unknown,Unknown,No,No,Yes,No,No,No,No,No,No,No,No,No,114,Lambton Baby Point (114)
918693,2006/07/22 04:00:00+00,640,6,RICHMOND ST E,PARLIAMENT ST,Major Arterial,43.654545,-79.36399,Intersection,Traffic Signal,Clear,Daylight,Dry,Non-Fatal Injury,Driver,50 to 54,52,Major,"Automobile, Station Wagon",Disobeyed Traffic Control,Inattentive,No,No,Yes,No,No,Yes,No,No,Yes,Yes,No,No,73,Moss Park (73)
915114,2006/07/23 04:00:00+00,515,5,HIGHWAY 27 S  S,401 X W 427 X RAMP,Major Arterial,43.679345,-79.57879,Mid-Block,No Control,Clear,Dark,Dry,Non-Fatal Injury,Driver,45 to 49,47,Major,"Automobile, Station Wagon",Other,"Ability Impaired, Alcohol Over .08",No,No,Yes,No,No,No,No,No,No,No,Yes,No,1,West Humber-Clairville (1)
914846,2006/07/23 04:00:00+00,1357,13,VICTORIA PARK AVE,BISCAYNE BLVD,Major Arterial,43.729145,-79.30449,Intersection,No Control,Rain,Daylight,Wet,Fatal,Pedestrian,70 to 74,72,Fatal,Other,Unknown,Unknown,Yes,No,Yes,No,No,No,No,No,No,No,No,No,119,Wexford/Maryvale (119)
915101,2006/07/24 04:00:00+00,1302,13,LAKE SHORE BLVD W,JAMESON LAKESHORE RAMP,Major Arterial,43.631745,-79.43259,Mid-Block,No Control,Clear,Daylight,Dry,Non-Fatal Injury,Cyclist,30 to 34,32,Major,Bicycle,Unknown,Unknown,No,Yes,No,No,No,No,No,No,No,No,No,No,85,South Parkdale (85)
918775,2006/07/24 04:00:00+00,1428,14,STEELES AVE W,ALNESS ST,Major Arterial,43.78464500000001,-79.48109000000002,Intersection,Traffic Signal,Clear,Daylight,Dry,Non-Fatal Injury,Vehicle Owner,unknown,unknown,Unknown,Other,Unknown,Unknown,No,No,Yes,No,No,No,No,No,No,No,No,No,27,York University Heights (27)
919231,2006/07/24 04:00:00+00,2348,23,DON MILLS RD,DON VALLEY PARKWAY S  S,Major Arterial,43.700245,-79.33769000000002,Mid-Block,No Control,Clear,Dark,Dry,Non-Fatal Injury,Driver,30 to 34,32,None,"Automobile, Station Wagon",Other,"Ability Impaired, Alcohol Over .08",No,No,Yes,No,No,No,No,No,No,No,Yes,No,58,Old East York (58)
915543,2006/07/26 04:00:00+00,544,5,NUGGET AVE,SHORTING RD,Minor Arterial,43.796345,-79.25089,Intersection,Stop Sign,Clear,Daylight,Other,Non-Fatal Injury,Truck Driver,60 to 64,62,None,Truck - Open,Driving Properly,Normal,No,No,Yes,No,Yes,No,No,No,Yes,No,No,No,128,Agincourt South-Malvern West (128)
919514,2006/07/26 04:00:00+00,2135,21,ALBION RD,ARMEL CRT,Major Arterial,43.721345,-79.54559,Intersection,Traffic Signal,Rain,Dark,Wet,Non-Fatal Injury,Vehicle Owner,unknown,unknown,None,Other,Unknown,Unknown,No,No,Yes,No,No,No,No,No,No,No,No,No,5,Elms-Old Rexdale (5)
919835,2006/07/28 04:00:00+00,1610,16,225 BIRMINGHAM ST,Unknown,Collector,43.602045,-79.51169,Mid-Block,No Control,Clear,Daylight,Dry,Non-Fatal Injury,Vehicle Owner,unknown,unknown,Unknown,Other,Unknown,Unknown,No,Yes,Yes,No,No,No,No,No,Yes,No,No,No,18,New Toronto (18)
915991,2006/07/28 04:00:00+00,1626,16,ISLINGTON AVE,DIXON RD,Major Arterial,43.694445,-79.54549,Mid-Block,No Control,Clear,Daylight,Dry,Fatal,Pedestrian,20 to 24,22,Fatal,Other,Unknown,Unknown,Yes,No,Yes,No,No,No,No,No,No,No,No,No,6,Kingsview Village-The Westway (6)
924338,2006/07/30 04:00:00+00,720,7,LAWRENCE AVE W,JANE ST,Major Arterial,43.702845,-79.50379000000002,Intersection,Traffic Signal,Clear,Daylight,Dry,Non-Fatal Injury,Driver,20 to 24,22,None,"Automobile, Station Wagon",Failed to Yield Right of Way,Unknown,Yes,No,Yes,No,No,No,No,No,Yes,No,No,No,30,Brookhaven-Amesbury (30)
922598,2006/07/30 04:00:00+00,1435,14,DON MILLS RD,MCNICOLL AVE,Major Arterial,43.799645,-79.35409,Intersection,Traffic Signal,Clear,Daylight,Dry,Non-Fatal Injury,Passenger,45 to 49,47,Major,Other,Unknown,Unknown,No,No,Yes,No,No,No,No,No,No,No,No,No,48,Hillcrest Village (48)
916024,2006/07/30 04:00:00+00,2155,21,F G GARDINER XY Ramp W,GARDINER W S KINGSWAY RAMP,Unknown,43.634645,-79.47159,Exit Ramp Westbound,No Control,Clear,Dark,Dry,Fatal,Motorcycle Driver,20 to 24,22,Fatal,Motorcycle,Lost control,Unknown,No,No,No,Yes,No,No,No,No,No,No,No,No,85,South Parkdale (85)
916541,2006/07/31 04:00:00+00,632,6,FINCH AVE E,BRAHMS AVE,Major Arterial,43.791945,-79.35809,Intersection,Traffic Signal,Clear,Daylight,Dry,Non-Fatal Injury,Passenger,30 to 34,32,None,Other,Unknown,Unknown,Yes,No,Yes,No,No,No,No,No,No,No,No,No,47,Don Valley Village (47)
920182,2006/07/31 04:00:00+00,1440,14,BLOOR ST W,KENNEDY AVE,Major Arterial,43.651245,-79.47549000000002,Intersection,No Control,Clear,Daylight,Dry,Non-Fatal Injury,Vehicle Owner,unknown,unknown,Unknown,Other,Unknown,Unknown,Yes,No,Yes,No,No,No,No,No,Yes,No,No,No,87,High Park-Swansea (87)
920315,2006/07/31 04:00:00+00,1659,16,BAY ST,KING ST W,Major Arterial,43.648645,-79.38029,Intersection,Traffic Signal,Clear,Daylight,Dry,Non-Fatal Injury,Cyclist,30 to 34,32,Major,Bicycle,Unknown,Unknown,No,Yes,No,No,No,No,No,No,No,No,No,No,76,Bay Street Corridor (76)
920756,2006/08/01 04:00:00+00,1838,18,HENLEY CRES,KIPLING AVE,Local,43.730645,-79.57539,Mid-Block,No Control,Clear,Daylight,Dry,Non-Fatal Injury,Driver,70 to 74,72,None,"Automobile, Station Wagon",Disobeyed Traffic Control,Unknown,No,Yes,Yes,No,No,No,No,No,Yes,No,No,No,4,Rexdale-Kipling (4)
916630,2006/08/01 04:00:00+00,2345,23,NEILSON RD,WICKSON TRL,Minor Arterial,43.802045,-79.21779000000002,Intersection,Traffic Signal,Clear,Dark,Dry,Fatal,Pedestrian,30 to 34,32,Fatal,Other,Unknown,Unknown,Yes,No,Yes,No,No,No,No,No,No,No,No,No,132,Malvern (132)
916979,2006/08/03 04:00:00+00,122,1,F G GARDINER XY E  E,LAKESHORE W GARDINER RAMP E,Major Arterial,43.634145,-79.47169,Mid-Block,No Control,Rain,Dark,Wet,Non-Fatal Injury,Vehicle Owner,unknown,unknown,None,Other,Unknown,Unknown,Yes,No,Yes,No,No,No,No,No,No,No,Yes,No,85,South Parkdale (85)
917154,2006/08/03 04:00:00+00,130,1,JANE ST,FOXWELL ST,Major Arterial,43.672145,-79.49399,Mid-Block,No Control,Rain,Dark,Wet,Fatal,Pedestrian,50 to 54,52,Fatal,Other,Unknown,Unknown,Yes,No,Yes,No,No,No,No,No,No,No,No,No,111,Rockcliffe-Smythe (111)
916791,2006/08/03 04:00:00+00,319,3,MIDLAND AVE,LAWRENCE AVE E,Major Arterial,43.751545,-79.26509,Intersection,Traffic Signal,Clear,Dark,Dry,Non-Fatal Injury,Passenger,25 to 29,27,None,Other,Unknown,Unknown,No,No,Yes,No,No,No,No,No,Yes,Yes,No,No,127,Bendale (127)
920424,2006/08/03 04:00:00+00,1831,18,SHEPPARD AVE E,DORIS AVE,Major Arterial,43.762045,-79.40829000000002,Intersection,Traffic Signal,Clear,Daylight,Dry,Non-Fatal Injury,Driver,55 to 59,57,None,"Automobile, Station Wagon",Driving Properly,Normal,Yes,No,Yes,No,No,No,No,No,Yes,No,No,No,51,Willowdale East (51)
917223,2006/08/05 04:00:00+00,6,6,WESTHEAD RD,DUNNING CRES,Local,43.603245,-79.55459,Intersection,No Control,Clear,Dark,Dry,Non-Fatal Injury,Driver,20 to 24,22,None,"Automobile, Station Wagon",Other,Had Been Drinking,Yes,No,Yes,No,No,No,No,No,No,No,No,No,20,Alderwood (20)
920995,2006/08/05 04:00:00+00,330,3,333 KING ST W,Unknown,Major Arterial,43.646245,-79.39149,Mid-Block,No Control,Clear,Dark,Dry,Non-Fatal Injury,Other,Over 95,unknown,None,Other,Unknown,Unknown,No,No,Yes,No,No,No,No,No,Yes,No,No,No,77,Waterfront Communities-The Island (77)
917225,2006/08/06 04:00:00+00,203,2,MOUNT PLEASANT RD,SOUTH DR,Major Arterial,43.677645,-79.38059,Mid-Block,No Control,Clear,Dark,Dry,Non-Fatal Injury,Driver,20 to 24,22,None,"Automobile, Station Wagon",Other,Unknown,Yes,No,Yes,No,No,No,No,No,No,No,No,No,98,Rosedale-Moore Park (98)
917572,2006/08/06 04:00:00+00,2150,21,DANFORTH AVE,LUTTRELL AVE,Major Arterial,43.690145,-79.29309,Mid-Block,No Control,Clear,Dark,Dry,Non-Fatal Injury,Vehicle Owner,unknown,unknown,None,Other,Unknown,Unknown,No,No,Yes,No,No,No,No,Yes,Yes,No,No,No,61,Taylor-Massey (61)
917426,2006/08/07 04:00:00+00,2110,21,FINCH AVE W,KISKADEE DR,Major Arterial,43.735245,-79.59819,Intersection,No Control,Clear,Dark,Dry,Non-Fatal Injury,Driver,unknown,unknown,None,"Automobile, Station Wagon",Failed to Yield Right of Way,Unknown,Yes,No,Yes,No,No,No,No,No,Yes,No,No,No,1,West Humber-Clairville (1)
890013,2006/02/03 05:00:00+00,957,9,ELLESMERE RD,BIRCHMOUNT RD,Major Arterial,43.763445,-79.29139,Intersection,Traffic Signal,Rain,Daylight,Wet,Non-Fatal Injury,Driver,50 to 54,52,None,"Automobile, Station Wagon",Failed to Yield Right of Way,Normal,Yes,No,Yes,No,No,No,No,No,Yes,No,No,No,126,Dorset Park (126)
887427,2006/02/07 05:00:00+00,1330,13,JANE ST,BRADLEY AVE,Major Arterial,43.663745,-79.49039,Mid-Block,Pedestrian Crossover,Clear,Daylight,Dry,Non-Fatal Injury,Driver,50 to 54,52,None,"Automobile, Station Wagon",Other,Inattentive,Yes,No,Yes,No,No,No,No,No,No,No,No,No,89,Runnymede-Bloor West Village (89)
890583,2006/02/08 05:00:00+00,745,7,WOODSIDE AVE,RUNNYMEDE RD,Minor Arterial,43.657845,-79.47909,Intersection,Stop Sign,Clear,Daylight,Dry,Non-Fatal Injury,Driver,30 to 34,32,None,"Automobile, Station Wagon",Failed to Yield Right of Way,Normal,Yes,No,Yes,No,No,No,No,No,Yes,No,No,No,88,High Park North (88)
887637,2006/02/08 05:00:00+00,1500,15,CARLINGVIEW DR,DIXON RD,Major Arterial,43.686745,-79.59559,Intersection,Traffic Signal,Clear,Daylight,Dry,Non-Fatal Injury,Driver,50 to 54,52,None,"Automobile, Station Wagon",Driving Properly,Normal,Yes,No,Yes,No,No,No,No,No,No,No,No,No,1,West Humber-Clairville (1)
891027,2006/02/11 05:00:00+00,1804,18,UNDERHILL DR,CASSANDRA BLVD,Collector,43.752745,-79.32639,Intersection,No Control,Clear,Dark,Dry,Non-Fatal Injury,Driver,65 to 69,67,None,"Automobile, Station Wagon",Improper Turn,Inattentive,No,Yes,Yes,No,No,No,No,No,No,No,No,No,45,Parkwoods-Donalda (45)
888108,2006/02/12 05:00:00+00,845,8,840 KENNEDY RD,Unknown,Major Arterial,43.735945,-79.26949,Mid-Block,No Control,Clear,Daylight,Dry,Non-Fatal Injury,Driver,40 to 44,42,None,"Automobile, Station Wagon",Driving Properly,Normal,No,No,Yes,No,No,No,No,No,No,No,No,No,125,Ionview (125)
891189,2006/02/12 05:00:00+00,856,8,PAPE AVE,CANNING AVE,Major Arterial,43.682345,-79.34609,Intersection,No Control,Clear,Daylight,Dry,Non-Fatal Injury,Vehicle Owner,unknown,unknown,None,Other,Unknown,Unknown,No,No,Yes,No,No,No,No,Yes,Yes,No,No,No,66,Danforth (66)
888231,2006/02/13 05:00:00+00,925,9,GLENBURN AVE,TIAGO AVE,Local,43.712545,-79.30039000000002,Intersection,Stop Sign,Clear,Daylight,Dry,Non-Fatal Injury,Pedestrian,55 to 59,57,Major,Other,Unknown,Unknown,Yes,No,Yes,No,No,No,No,No,Yes,No,No,No,54,O'Connor-Parkview (54)
891178,2006/02/14 05:00:00+00,520,5,EGLINTON AVE W,BLACK CREEK DR,Major Arterial,43.688345,-79.48289,Intersection,Traffic Signal,Clear,Dark,Dry,Non-Fatal Injury,Vehicle Owner,unknown,unknown,None,Other,Unknown,Unknown,No,No,Yes,No,No,No,No,Yes,Yes,Yes,No,No,110,Keelesdale-Eglinton West (110)
888497,2006/02/15 05:00:00+00,935,9,WESTWOOD AVE,WOODYCREST AVE,Local,43.687345,-79.34469,Intersection,Stop Sign,Clear,Daylight,Dry,Fatal,Pedestrian,70 to 74,72,Fatal,Other,Unknown,Unknown,Yes,No,No,No,No,No,No,No,Yes,No,No,No,59,Danforth East York (59)
888639,2006/02/16 05:00:00+00,620,6,2443 ISLINGTON AVE,Unknown,Major Arterial,43.725545,-79.56009,Mid-Block,No Control,Snow,Daylight,Slush,Non-Fatal Injury,Driver,40 to 44,42,Major,"Automobile, Station Wagon",Speed too Fast For Condition,Unknown,No,No,Yes,No,No,No,No,Yes,Yes,No,No,No,5,Elms-Old Rexdale (5)
891641,2006/02/16 05:00:00+00,2159,21,DOVERCOURT RD,NORTHUMBERLAND ST,Minor Arterial,43.662545,-79.42979,Mid-Block,No Control,Rain,Dark,Wet,Non-Fatal Injury,Vehicle Owner,unknown,unknown,Unknown,Other,Unknown,Unknown,Yes,No,Yes,No,No,No,No,No,Yes,No,No,No,93,Dovercourt-Wallace Emerson-Junction (93)
893071,2006/02/19 05:00:00+00,1508,15,EGLINTON AVE E,SUTHERLAND DR,Major Arterial,43.713045,-79.36719000000002,Intersection,Traffic Signal,Clear,Daylight,Dry,Non-Fatal Injury,Driver,45 to 49,47,None,"Automobile, Station Wagon",Driving Properly,Normal,Yes,No,Yes,No,No,No,No,No,No,No,No,No,56,Leaside-Bennington (56)
893365,2006/02/20 05:00:00+00,607,6,1302 KING ST W,Unknown,Major Arterial,43.638245,-79.43109,Intersection,No Control,Clear,Dark,Dry,Non-Fatal Injury,Passenger,40 to 44,42,Major,Other,Unknown,Unknown,No,No,Yes,No,No,No,No,Yes,Yes,No,No,No,85,South Parkdale (85)
889218,2006/02/20 05:00:00+00,1840,18,NEILSON RD,MCLEVIN AVE,Minor Arterial,43.808145,-79.21999,Mid-Block,No Control,Clear,Dusk,Dry,Fatal,Pedestrian,80 to 84,82,Fatal,Other,Unknown,Unknown,Yes,No,Yes,No,No,No,No,No,No,No,No,No,132,Malvern (132)
890516,2006/02/21 05:00:00+00,1846,18,BATHURST ST,ALLINGHAM GDNS,Major Arterial,43.740545,-79.43479,Intersection,Stop Sign,Clear,Dark,Dry,Non-Fatal Injury,Driver,55 to 59,57,None,"Automobile, Station Wagon",Failed to Yield Right of Way,Normal,Yes,No,Yes,No,No,No,No,No,Yes,No,No,No,38,Lansing-Westgate (38)
893520,2006/02/23 05:00:00+00,700,7,DUNDAS ST W,427 C S DUNDAS RAMP S,Major Arterial,43.628045,-79.55889,Intersection,Traffic Signal,Clear,Daylight,Dry,Non-Fatal Injury,Vehicle Owner,unknown,unknown,None,Other,Unknown,Unknown,No,No,Yes,No,No,No,No,No,Yes,Yes,No,No,12,Markland Wood (12)
893539,2006/02/23 05:00:00+00,1350,13,ARDMORE RD,BATHURST ST,Major Arterial,43.693745,-79.42259,Intersection,Stop Sign,Clear,Daylight,Dry,Non-Fatal Injury,Pedestrian,75 to 79,77,Major,Other,Unknown,Unknown,Yes,No,Yes,No,No,No,No,No,Yes,No,No,No,101,Forest Hill South (101)
890040,2006/02/24 05:00:00+00,837,8,EGLINTON AVE W,RENFORTH DR,Major Arterial,43.666045,-79.58769000000002,Intersection,Traffic Signal,Clear,Daylight,Dry,Non-Fatal Injury,Vehicle Owner,unknown,unknown,None,Other,Unknown,Unknown,Yes,No,Yes,No,No,No,No,No,No,No,No,No,11,Eringate-Centennial-West Deane (11)
890213,2006/02/25 05:00:00+00,1529,15,AVENUE RD,ELGIN AVE,Major Arterial,43.67184500000001,-79.39539,Intersection,Traffic Signal,Clear,Daylight,Dry,Non-Fatal Injury,Vehicle Owner,unknown,unknown,Unknown,Other,Unknown,Unknown,Yes,No,Yes,No,No,No,No,No,Yes,No,No,No,95,Annex (95)
910787,2006/02/26 05:00:00+00,117,1,LANSDOWNE AVE,DUNDAS ST W,Minor Arterial,43.650445,-79.43979,Mid-Block,No Control,Snow,Dark,Wet,Non-Fatal Injury,Passenger,15 to 19,17,Major,Other,Unknown,Unknown,No,No,Yes,No,No,No,No,Yes,Yes,No,No,No,83,Dufferin Grove (83)
890220,2006/02/26 05:00:00+00,430,4,ADELAIDE ST E,EASTERN DIVERSION AVE,Major Arterial,43.655345,-79.35519000000002,Mid-Block,No Control,Clear,Dark,Loose Snow,Non-Fatal Injury,Passenger,15 to 19,17,Major,Other,Unknown,Unknown,No,No,Yes,No,No,No,No,Yes,Yes,No,No,No,73,Moss Park (73)
890506,2006/02/27 05:00:00+00,501,5,MARTIN GROVE RD,RACINE RD,Major Arterial,43.717145,-79.58259,Mid-Block,No Control,Clear,Dark,Dry,Fatal,Pedestrian,30 to 34,32,Fatal,Other,Unknown,Unknown,Yes,No,Yes,No,No,No,No,Yes,Yes,No,No,No,1,West Humber-Clairville (1)
894467,2006/02/27 05:00:00+00,1723,17,QUEEN ST E,BOULTON AVE,Minor Arterial,43.659545,-79.34669,Intersection,Pedestrian Crossover,Clear,Daylight,Dry,Non-Fatal Injury,Driver,30 to 34,32,None,"Automobile, Station Wagon",Failed to Yield Right of Way,Inattentive,Yes,No,Yes,No,No,No,No,No,Yes,No,No,No,70,South Riverdale (70)
893580,2006/02/27 05:00:00+00,1955,19,MORNINGSIDE AVE,KINGSTON RD,Major Arterial,43.770645,-79.18689,Intersection,Traffic Signal,Clear,Dark,Wet,Non-Fatal Injury,Vehicle Owner,unknown,unknown,Unknown,Other,Unknown,Unknown,No,Yes,No,No,No,Yes,No,No,Yes,No,No,No,136,West Hill (136)
890767,2006/02/28 05:00:00+00,1754,17,RENFORTH DR,EGLINTON AVE W,Major Arterial,43.666645,-79.58739,Mid-Block,No Control,Clear,Dark,Dry,Non-Fatal Injury,Driver,55 to 59,57,Major,"Automobile, Station Wagon",Other,Unknown,No,No,Yes,No,No,No,No,No,No,No,No,No,11,Eringate-Centennial-West Deane (11)
892432,2006/02/28 05:00:00+00,2334,23,DANFORTH RD,EGLINTON AVE E,Major Arterial,43.737045,-79.24619,Unknown,Traffic Signal,Clear,Dark,Dry,Non-Fatal Injury,Vehicle Owner,unknown,unknown,None,Other,Unknown,Unknown,Yes,No,Yes,No,No,No,No,No,No,No,No,No,138,Eglinton East (138)
894195,2006/03/01 05:00:00+00,1110,11,COSBURN AVE,LOGAN AVE,Minor Arterial,43.688645,-79.35279,Mid-Block,No Control,Clear,Daylight,Dry,Non-Fatal Injury,Driver,35 to 39,37,None,"Automobile, Station Wagon",Other,Inattentive,No,Yes,Yes,No,No,No,No,No,No,No,No,No,57,Broadview North (57)
895068,2006/03/06 05:00:00+00,1828,18,SOUTH KINGSWAY,RIPLEY AVE,Minor Arterial,43.636545,-79.47509000000002,Mid-Block,No Control,Clear,"Dusk, artificial",Dry,Non-Fatal Injury,Vehicle Owner,unknown,unknown,None,Other,Unknown,Unknown,Yes,No,Yes,No,No,No,No,No,No,No,No,No,87,High Park-Swansea (87)
891993,2006/03/06 05:00:00+00,2222,22,F G GARDINER XY  W,PARK LAWN RD,Unknown,43.627745,-79.48149000000002,Mid-Block,No Control,Clear,Dark,Dry,Fatal,Passenger,15 to 19,17,Fatal,Other,Unknown,Unknown,No,No,Yes,No,No,No,No,No,No,No,Yes,No,17,Mimico (includes Humber Bay Shores) (17)
892453,2006/03/08 05:00:00+00,2018,20,F G GARDINER XY E  E,KIPLING AVE,Unknown,43.618845,-79.52039,Mid-Block,No Control,Clear,Dark,Dry,Fatal,Passenger,5 to 9,7,Fatal,Other,Unknown,Unknown,No,No,Yes,No,No,No,No,No,No,No,No,No,17,Mimico (includes Humber Bay Shores) (17)
901141,2006/05/06 04:00:00+00,1830,18,YONGE ST,WILSON AVE,Major Arterial,43.744145,-79.40669,Intersection,Traffic Signal,Clear,Daylight,Dry,Non-Fatal Injury,Driver,40 to 44,42,Minor,"Automobile, Station Wagon",Driving Properly,Normal,No,No,Yes,No,No,No,No,No,No,No,No,Yes,40,St.Andrew-Windfields (40)
904614,2006/05/06 04:00:00+00,2314,23,SHEPPARD AVE E,BROWNSPRING RD,Major Arterial,43.789445,-79.25969,Mid-Block,No Control,Clear,Dark,Dry,Non-Fatal Injury,Driver,50 to 54,52,None,"Automobile, Station Wagon",Driving Properly,Normal,Yes,No,Yes,No,No,No,No,No,No,No,No,No,128,Agincourt South-Malvern West (128)
904441,2006/05/07 04:00:00+00,1452,14,EDENBRIDGE DR,THE KINGSWAY,Local,43.667545,-79.52759,Mid-Block,No Control,Clear,Daylight,Dry,Non-Fatal Injury,Passenger,55 to 59,57,Minor,Other,Unknown,Unknown,No,No,Yes,No,No,No,No,No,No,No,No,No,9,Edenbridge-Humber Valley (9)
905909,2006/05/08 04:00:00+00,1911,19,MANNING AVE,BLOOR ST W,Local,43.665345,-79.41649,Mid-Block,No Control,Clear,Daylight,Dry,Non-Fatal Injury,Driver,unknown,unknown,None,"Automobile, Station Wagon",Speed too Fast For Condition,Unknown,Yes,No,Yes,No,No,No,No,Yes,Yes,No,No,No,95,Annex (95)
901382,2006/05/08 04:00:00+00,1950,19,EGLINTON AVE E,FORMAN AVE,Major Arterial,43.709145,-79.38619,Intersection,Traffic Signal,Clear,Dark,Dry,Non-Fatal Injury,Vehicle Owner,unknown,unknown,None,Other,Unknown,Unknown,No,No,Yes,No,No,No,No,No,No,No,No,No,99,Mount Pleasant East (99)
906284,2006/05/09 04:00:00+00,710,7,THE QUEENSWAY,MORGAN AVE,Major Arterial,43.626545,-79.50149,Intersection,Stop Sign,Clear,Daylight,Dry,Non-Fatal Injury,Driver,65 to 69,67,Major,"Automobile, Station Wagon",Improper Turn,Normal,No,No,Yes,No,No,No,No,No,No,No,No,No,16,Stonegate-Queensway (16)
904596,2006/05/09 04:00:00+00,1632,16,BLOOR ST W,SOUTH KINGSWAY,Major Arterial,43.648345,-79.48569,Intersection,Traffic Signal,Clear,Daylight,Dry,Non-Fatal Injury,Motorcycle Driver,25 to 29,27,Major,Motorcycle,Driving Properly,Normal,No,No,Yes,Yes,No,No,No,No,Yes,No,No,No,87,High Park-Swansea (87)
905154,2006/05/11 04:00:00+00,610,6,MEADOWVALE RD,PLUG HAT RD,Collector,43.835745,-79.18299,Mid-Block,No Control,Rain,Daylight,Wet,Non-Fatal Injury,Vehicle Owner,unknown,unknown,None,Other,Unknown,Unknown,No,No,Yes,No,No,No,No,No,Yes,No,No,No,131,Rouge (131)
911757,2006/05/11 04:00:00+00,700,7,YONGE ST,DELISLE AVE,Major Arterial,43.689145,-79.39459000000002,Intersection,Stop Sign,Rain,Daylight,Wet,Non-Fatal Injury,Motorcycle Driver,25 to 29,27,Major,Motorcycle,Driving Properly,Normal,No,No,Yes,Yes,No,No,No,No,Yes,No,No,No,98,Rosedale-Moore Park (98)
902180,2006/05/11 04:00:00+00,1536,15,VAUGHAN RD,LOUISE AVE,Minor Arterial,43.684945,-79.42159000000002,Mid-Block,No Control,Rain,Daylight,Wet,Non-Fatal Injury,Pedestrian,80 to 84,82,Major,Other,Unknown,Unknown,Yes,No,Yes,No,No,No,No,No,No,No,No,No,106,Humewood-Cedarvale (106)
905024,2006/05/11 04:00:00+00,1700,17,WILSON AVE,ELROSE AVE,Major Arterial,43.717445,-79.52399,Mid-Block,No Control,Rain,Daylight,Wet,Non-Fatal Injury,Driver,15 to 19,17,None,"Automobile, Station Wagon",Driving Properly,Normal,Yes,No,Yes,No,No,No,No,No,No,No,No,No,26,Downsview-Roding-CFB (26)
905249,2006/05/13 04:00:00+00,1225,12,BAY ST,CUMBERLAND ST,Major Arterial,43.670545,-79.38979,Intersection,Stop Sign,Clear,Daylight,Dry,Non-Fatal Injury,Driver,45 to 49,47,None,"Automobile, Station Wagon",Other,Normal,Yes,No,Yes,No,No,No,No,No,No,No,No,No,95,Annex (95)
903786,2006/05/13 04:00:00+00,2047,20,ELM ST,MURRAY ST,Collector,43.656145,-79.39049,Intersection,Stop Sign,Clear,Dark,Dry,Non-Fatal Injury,Driver,unknown,unknown,None,"Automobile, Station Wagon",Other,Unknown,Yes,No,Yes,No,No,No,No,No,No,No,No,No,78,Kensington-Chinatown (78)
909657,2006/05/14 04:00:00+00,510,5,FINCH AVE W,SENTINEL RD,Major Arterial,43.761045,-79.49999,Intersection,Traffic Signal,Clear,"Dawn, artificial",Dry,Non-Fatal Injury,Vehicle Owner,unknown,unknown,Unknown,Other,Unknown,Unknown,Yes,No,Yes,No,No,No,No,Yes,Yes,No,No,No,27,York University Heights (27)
906225,2006/05/17 04:00:00+00,1137,11,FINCH AVE W,VIRGILWOOD DR,Major Arterial,43.772845,-79.44819,Intersection,Traffic Signal,Clear,Daylight,Dry,Non-Fatal Injury,Driver,50 to 54,52,None,"Automobile, Station Wagon",Failed to Yield Right of Way,Normal,Yes,No,Yes,No,No,No,No,No,Yes,No,No,No,35,Westminster-Branson (35)
919534,2006/05/17 04:00:00+00,1215,12,6 HAVENBROOK BLVD,Unknown,Local,43.768745,-79.35689,Mid-Block,No Control,Clear,Daylight,Dry,Non-Fatal Injury,Driver,75 to 79,77,None,"Automobile, Station Wagon",Improper Passing,Normal,No,Yes,Yes,No,No,No,No,No,Yes,No,No,No,53,Henry Farm (53)
903449,2006/05/17 04:00:00+00,1810,18,STILECROFT DR,SENTINEL RD,Local,43.750745,-79.49259,Mid-Block,No Control,Rain,Daylight,Wet,Fatal,Pedestrian,0 to 4,2,Fatal,Other,Unknown,Unknown,Yes,No,Yes,No,No,No,No,No,No,No,No,No,27,York University Heights (27)
916560,2006/05/19 04:00:00+00,1140,11,LAUGHTON AVE,TALBOT ST,Collector,43.673945,-79.45729,Intersection,Stop Sign,Clear,Daylight,Dry,Non-Fatal Injury,Driver,65 to 69,67,Major,"Automobile, Station Wagon",Failed to Yield Right of Way,Normal,No,No,Yes,No,No,No,No,No,Yes,No,No,No,91,Weston-Pellam Park (91)
903914,2006/05/20 04:00:00+00,150,1,WOODBINE AVE,GERRARD ST E,Major Arterial,43.681945,-79.31129,Mid-Block,No Control,Rain,Dark,Wet,Non-Fatal Injury,Passenger,15 to 19,17,None,Other,Unknown,Unknown,Yes,No,Yes,No,No,No,No,Yes,Yes,No,No,No,62,East End-Danforth (62)
907762,2006/05/21 04:00:00+00,1024,10,REXDALE BLVD,BERGAMOT AVE,Major Arterial,43.713345,-79.55969,Intersection,Traffic Signal,Rain,Daylight,Wet,Non-Fatal Injury,Driver,50 to 54,52,None,"Automobile, Station Wagon",Driving Properly,Normal,No,No,Yes,No,No,No,No,No,No,No,No,No,4,Rexdale-Kipling (4)
904456,2006/05/23 04:00:00+00,1840,18,BATHURST ST,GLENCAIRN AVE,Major Arterial,43.712345,-79.42809,Intersection,Traffic Signal,Clear,Daylight,Dry,Fatal,Pedestrian,40 to 44,42,Fatal,Other,Unknown,Unknown,Yes,No,Yes,No,No,No,No,No,Yes,No,No,No,39,Bedford Park-Nortown (39)
907900,2006/05/24 04:00:00+00,622,6,RENFORTH DR,CONVAIR DR,Major Arterial,43.672145,-79.59329,Intersection,Traffic Signal,Clear,Daylight,Dry,Non-Fatal Injury,Driver,45 to 49,47,Minor,"Automobile, Station Wagon",Driving Properly,Normal,No,No,Yes,No,No,No,No,No,Yes,Yes,No,No,1,West Humber-Clairville (1)
912231,2006/05/24 04:00:00+00,1915,19,30 CARLTON ST,Unknown,Major Arterial,43.661345,-79.38179000000002,Mid-Block,No Control,Clear,Daylight,Dry,Non-Fatal Injury,Vehicle Owner,unknown,unknown,Unknown,Other,Unknown,Unknown,No,Yes,Yes,No,No,No,No,No,No,No,No,No,75,Church-Yonge Corridor (75)
917581,2006/05/25 04:00:00+00,2250,22,YONGE ST,ROSEHILL AVE,Major Arterial,43.686245,-79.39329000000002,Intersection,Traffic Signal,Clear,Dark,Dry,Non-Fatal Injury,Pedestrian,45 to 49,47,Major,Other,Unknown,Unknown,Yes,Yes,No,No,No,No,No,No,No,No,No,No,98,Rosedale-Moore Park (98)
905457,2006/05/26 04:00:00+00,2214,22,BATHURST ST,DAVENPORT RD,Major Arterial,43.676745,-79.41579,Intersection,Traffic Signal,Clear,Dark,Dry,Non-Fatal Injury,Cyclist,40 to 44,42,Major,Bicycle,Unknown,Unknown,No,Yes,No,No,No,No,No,No,No,No,No,No,96,Casa Loma (96)
908702,2006/05/27 04:00:00+00,2358,23,GOSFORD BLVD,ARTECH CRT,Collector,43.763345,-79.52119,Mid-Block,No Control,Clear,Dark,Dry,Non-Fatal Injury,Passenger,10 to 14,12,Major,Other,Unknown,Unknown,No,No,Yes,No,No,No,No,Yes,Yes,No,Yes,No,24,Black Creek (24)
905408,2006/05/28 04:00:00+00,550,5,KENNEDY RD,LAWRENCE AVE E,Major Arterial,43.749445,-79.27489,Intersection,Traffic Signal,Clear,"Dusk, artificial",Dry,Non-Fatal Injury,Passenger,20 to 24,22,Major,Other,Unknown,Unknown,No,No,Yes,No,No,No,No,No,No,No,Yes,No,126,Dorset Park (126)
905456,2006/05/28 04:00:00+00,1615,16,EGLINTON AVE W,ROYAL YORK RD,Major Arterial,43.682345,-79.52659,Intersection,Traffic Signal,Clear,Daylight,Other,Non-Fatal Injury,Driver,40 to 44,42,None,"Automobile, Station Wagon",Driving Properly,Normal,No,No,Yes,No,No,No,No,No,No,No,No,No,8,Humber Heights-Westmount (8)
908832,2006/05/29 04:00:00+00,2149,21,YONGE ST,LORD SEATON RD,Major Arterial,43.752445,-79.40809,Intersection,Traffic Signal,Clear,Dark,Dry,Non-Fatal Injury,Passenger,unknown,unknown,Minimal,Other,Unknown,Unknown,No,No,Yes,No,No,No,No,No,No,No,No,No,40,St.Andrew-Windfields (40)
905761,2006/05/30 04:00:00+00,2328,23,ROSEDALE VALLEY RD,BAYVIEW AVE,Minor Arterial,43.671645,-79.36609,Mid-Block,No Control,Clear,Dark,Dry,Fatal,Motorcycle Driver,25 to 29,27,Fatal,Motorcycle,Lost control,Normal,No,No,No,Yes,No,No,No,No,Yes,No,No,No,71,Cabbagetown-South St.James Town (71)
909606,2006/06/01 04:00:00+00,1203,12,MCCOWAN RD,EGLINTON AVE E,Major Arterial,43.738845,-79.23839,Intersection,Traffic Signal,Clear,Daylight,Dry,Non-Fatal Injury,Passenger,15 to 19,17,Minor,Other,Unknown,Unknown,No,No,Yes,No,No,No,No,No,Yes,No,Yes,No,138,Eglinton East (138)
906207,2006/06/02 04:00:00+00,734,7,KINGSTON RD,DUNDAS ST E,Major Arterial,43.669945,-79.31119,Intersection,Traffic Signal,Clear,Daylight,Dry,Fatal,Pedestrian,50 to 54,52,Fatal,Other,Unknown,Unknown,Yes,No,Yes,No,No,No,No,No,No,No,No,No,63,The Beaches (63)
906410,2006/06/03 04:00:00+00,1815,18,ST CLAIR AVE W,WINONA DR,Major Arterial,43.680245,-79.43249,Intersection,Traffic Signal,Rain,Daylight,Wet,Non-Fatal Injury,Vehicle Owner,unknown,unknown,None,Other,Unknown,Unknown,Yes,No,Yes,No,No,No,No,No,Yes,No,No,No,94,Wychwood (94)
906526,2006/06/04 04:00:00+00,1655,16,BRIMLEY RD,CHARTLAND BLVD S,Major Arterial,43.804745,-79.27669,Mid-Block,No Control,Clear,Daylight,Dry,Non-Fatal Injury,Driver,45 to 49,47,Major,"Automobile, Station Wagon",Lost control,Medical or Physical Disability,No,No,Yes,No,No,No,No,No,No,No,No,Yes,129,Agincourt North (129)
906553,2006/06/05 04:00:00+00,110,1,WILLIAM R ALLEN RD N,RIDELLE AVE,Unknown,43.705545,-79.43839,Mid-Block,No Control,Clear,Dark,Dry,Non-Fatal Injury,Vehicle Owner,unknown,unknown,None,Other,Unknown,Unknown,No,No,Yes,No,No,No,No,No,No,No,Yes,No,102,Forest Hill North (102)
920927,2006/08/07 04:00:00+00,2330,23,KING ST W,BLUE JAYS WAY,Major Arterial,43.646145,-79.39179,Mid-Block,No Control,Clear,Dark,Dry,Non-Fatal Injury,Driver,unknown,unknown,None,"Automobile, Station Wagon",Failed to Yield Right of Way,Unknown,Yes,No,Yes,No,No,No,No,No,Yes,No,No,No,77,Waterfront Communities-The Island (77)
920998,2006/08/08 04:00:00+00,916,9,2159 KIPLING AVE,Unknown,Major Arterial,43.721145,-79.57119,Mid-Block,No Control,Clear,Daylight,Dry,Non-Fatal Injury,Driver,65 to 69,67,None,"Automobile, Station Wagon",Driving Properly,Normal,Yes,No,Yes,No,No,No,No,No,No,No,No,No,4,Rexdale-Kipling (4)
917601,2006/08/08 04:00:00+00,1006,10,YONGE ST,ATHABASKA AVE,Major Arterial,43.795445,-79.41939,Intersection,Traffic Signal,Clear,Daylight,Dry,Non-Fatal Injury,Driver,40 to 44,42,None,"Automobile, Station Wagon",Failed to Yield Right of Way,Normal,Yes,No,Yes,No,No,No,No,No,Yes,No,No,No,50,Newtonbrook East (50)
926819,2006/08/08 04:00:00+00,1709,17,GATEWAY BLVD,DON MILLS RD,Collector,43.714645,-79.33529,Mid-Block,No Control,Clear,Daylight,Dry,Non-Fatal Injury,Driver,45 to 49,47,Major,"Automobile, Station Wagon",Following too Close,Normal,No,No,Yes,No,No,No,No,No,Yes,No,No,No,44,Flemingdon Park (44)
924979,2006/08/22 04:00:00+00,1045,10,QUEEN ST W,JAMESON AVE,Major Arterial,43.640445,-79.43729,Intersection,Stop Sign,Clear,Daylight,Dry,Non-Fatal Injury,Passenger,10 to 14,12,None,Other,Unknown,Unknown,Yes,No,Yes,No,No,No,No,No,No,No,No,No,86,Roncesvalles (86)
921192,2006/08/09 04:00:00+00,1825,18,ORIOLE PKWY,TRANMER AVE,Minor Arterial,43.699945,-79.40409,Intersection,Stop Sign,Clear,Daylight,Dry,Non-Fatal Injury,Vehicle Owner,unknown,unknown,None,Other,Unknown,Unknown,No,No,Yes,No,No,No,No,No,Yes,No,No,No,100,Yonge-Eglinton (100)
949221,2006/08/09 04:00:00+00,2155,21,QUEEN ST E,HAMMERSMITH AVE,Minor Arterial,43.671145,-79.29429,Intersection,No Control,Clear,Dark,Dry,Non-Fatal Injury,Driver,50 to 54,52,None,"Automobile, Station Wagon",Other,Normal,Yes,No,Yes,No,No,No,No,No,No,No,No,No,63,The Beaches (63)
921174,2006/08/10 04:00:00+00,1826,18,DON MILLS RD,FRESHMEADOW DR,Major Arterial,43.808945,-79.35899,Intersection,Stop Sign,Clear,Daylight,Dry,Non-Fatal Injury,Driver,45 to 49,47,None,"Automobile, Station Wagon",Improper Passing,Normal,No,Yes,Yes,No,No,No,No,No,Yes,No,No,No,48,Hillcrest Village (48)
921181,2006/08/10 04:00:00+00,1836,18,3279 KINGSTON RD,Unknown,Major Arterial,43.731545,-79.22519,Mid-Block,No Control,Clear,Daylight,Dry,Non-Fatal Injury,Driver,35 to 39,37,None,"Automobile, Station Wagon",Improper Turn,Normal,No,Yes,Yes,No,No,No,No,No,No,No,No,No,139,Scarborough Village (139)
917941,2006/08/11 04:00:00+00,2230,22,ROGERS RD,MCROBERTS AVE,Minor Arterial,43.683245,-79.45599,Mid-Block,No Control,Clear,Dark,Dry,Non-Fatal Injury,Passenger,5 to 9,7,Major,Other,Unknown,Unknown,No,No,Yes,No,No,No,No,No,No,No,No,No,109,Caledonia-Fairbank (109)
913296,2006/06/25 04:00:00+00,2040,20,29 BLAIR ATHOL Cres,Unknown,Local,43.667245,-79.54469,Mid-Block,No Control,Clear,Dusk,Dry,Non-Fatal Injury,Passenger,15 to 19,17,Major,Other,Unknown,Unknown,No,No,Yes,No,No,No,No,No,No,No,No,No,10,Princess-Rosethorn (10)
921246,2006/08/12 04:00:00+00,236,2,WELLESLEY ST E,CHURCH ST,Minor Arterial,43.665745,-79.38099,Intersection,Traffic Signal,Clear,Dark,Dry,Non-Fatal Injury,Driver,20 to 24,22,None,"Automobile, Station Wagon",Driving Properly,Normal,Yes,No,Yes,No,No,No,No,No,No,No,No,No,75,Church-Yonge Corridor (75)
923965,2006/08/12 04:00:00+00,958,9,100 UNWIN AVE,Unknown,Collector,43.639045,-79.34669,Intersection,Stop Sign,Clear,Daylight,Dry,Non-Fatal Injury,Vehicle Owner,unknown,unknown,Unknown,Other,Unknown,Unknown,No,Yes,No,No,Yes,No,No,No,No,No,No,No,70,South Riverdale (70)
927677,2006/08/12 04:00:00+00,1845,18,562 BLOOR W ST W,Unknown,Major Arterial,43.665045,-79.411586,Mid-Block,No Control,Clear,Daylight,Dry,Non-Fatal Injury,Driver,45 to 49,47,None,"Automobile, Station Wagon",Other,Unknown,No,Yes,Yes,No,No,No,No,No,No,No,No,No,95,Annex (95)
918595,2006/08/15 04:00:00+00,829,8,1233 THE QUEENSWAY,Unknown,Major Arterial,43.615445,-79.55059,Mid-Block,No Control,Clear,Daylight,Dry,Non-Fatal Injury,Vehicle Owner,unknown,unknown,None,Other,Unknown,Unknown,No,No,Yes,No,Yes,No,No,No,Yes,No,No,No,14,Islington-City Centre West (14)
922700,2006/08/15 04:00:00+00,1405,14,MARKHAM RD,STEELES AVE E,Major Arterial,43.836545,-79.25119000000002,Intersection,Traffic Signal,Clear,Daylight,Dry,Non-Fatal Injury,Vehicle Owner,unknown,unknown,None,Other,Unknown,Unknown,No,No,Yes,No,No,No,No,No,No,No,No,No,131,Rouge (131)
918634,2006/08/15 04:00:00+00,1519,15,MCCOWAN RD,SANDHURST CRCL,Major Arterial,43.811645,-79.26919000000002,Intersection,Traffic Signal,Clear,Daylight,Dry,Non-Fatal Injury,Driver,25 to 29,27,Major,"Automobile, Station Wagon",Driving Properly,Normal,No,No,Yes,No,No,No,No,No,No,No,No,No,129,Agincourt North (129)
921668,2006/08/15 04:00:00+00,1550,15,QUEEN E ST E,SHERBOURNE ST,Major Arterial,43.654545,-79.36949,Intersection,Traffic Signal,Clear,Daylight,Dry,Non-Fatal Injury,Vehicle Owner,unknown,unknown,Unknown,Other,Unknown,Unknown,No,Yes,No,No,Yes,No,No,No,No,No,No,No,73,Moss Park (73)
922716,2006/08/15 04:00:00+00,1813,18,PIPERBROOK CRES,LING RD,Local,43.767545,-79.18169,Mid-Block,No Control,Clear,Daylight,Dry,Non-Fatal Injury,Driver,25 to 29,27,None,"Automobile, Station Wagon",Driving Properly,Normal,Yes,No,Yes,No,No,No,No,No,No,No,No,No,136,West Hill (136)
923248,2006/08/17 04:00:00+00,1725,17,STEELES E AVE E,TAPSCOTT RD,Major Arterial,43.840445,-79.23489000000002,Mid-Block,No Control,Clear,Daylight,Dry,Non-Fatal Injury,Driver,50 to 54,52,Major,"Automobile, Station Wagon",Driving Properly,Normal,No,No,Yes,No,No,No,No,No,No,No,No,No,131,Rouge (131)
919141,2006/08/17 04:00:00+00,1828,18,RICHMOND ST E,PARLIAMENT ST,Major Arterial,43.655045,-79.36209000000002,Mid-Block,No Control,Clear,Dark,Dry,Non-Fatal Injury,Vehicle Owner,unknown,unknown,None,Other,Unknown,Unknown,Yes,No,Yes,No,No,No,No,No,No,No,No,No,73,Moss Park (73)
922297,2006/08/17 04:00:00+00,2144,21,QUEEN ST W,SPADINA AVE,Major Arterial,43.649145,-79.39449,Mid-Block,No Control,Clear,Dark,Dry,Non-Fatal Injury,Vehicle Owner,unknown,unknown,Unknown,Other,Unknown,Unknown,Yes,No,No,No,No,No,No,No,No,No,No,No,77,Waterfront Communities-The Island (77)
923250,2006/08/17 04:00:00+00,2256,22,224 BEECHGROVE DR,Unknown,Collector,43.772345,-79.16079,Intersection,No Control,Clear,Dark,Dry,Non-Fatal Injury,Driver,40 to 44,42,None,"Automobile, Station Wagon",Failed to Yield Right of Way,"Ability Impaired, Alcohol",Yes,No,Yes,No,No,No,No,No,Yes,No,Yes,No,136,West Hill (136)
919332,2006/08/18 04:00:00+00,1639,16,SCARBOROUGH GOLF CLUB RD,BRIMORTON DR,Minor Arterial,43.769845,-79.21869000000002,Intersection,Traffic Signal,Clear,Daylight,Dry,Fatal,Passenger,65 to 69,67,Fatal,Other,Unknown,Unknown,No,No,Yes,No,No,No,No,No,No,No,No,No,135,Morningside (135)
925504,2006/08/18 04:00:00+00,1640,16,DUPONT ST,MANNING AVE,Major Arterial,43.672145,-79.41909,Intersection,No Control,Clear,Daylight,Dry,Non-Fatal Injury,Motorcycle Driver,35 to 39,37,Major,Motorcycle,Driving Properly,Normal,No,No,Yes,Yes,No,No,No,No,Yes,No,No,No,95,Annex (95)
919330,2006/08/18 04:00:00+00,2100,21,BELLAMY RD N,PROGRESS AVE,Minor Arterial,43.78014500000001,-79.24379,Intersection,Traffic Signal,Clear,Dark,Dry,Fatal,Passenger,70 to 74,72,Fatal,Other,Unknown,Unknown,No,No,Yes,No,No,No,No,No,No,No,No,No,137,Woburn (137)
922743,2006/08/18 04:00:00+00,2115,21,BLOOR ST W,HURON ST,Major Arterial,43.66734500000001,-79.40069,Mid-Block,No Control,Clear,Dark,Dry,Non-Fatal Injury,Driver,45 to 49,47,None,"Automobile, Station Wagon",Driving Properly,Normal,No,Yes,Yes,No,No,No,No,No,No,No,No,No,95,Annex (95)
919641,2006/08/19 04:00:00+00,1335,13,ELLESMERE RD,POLLARD DR,Major Arterial,43.758345,-79.31299,Intersection,No Control,Clear,Daylight,Dry,Fatal,Pedestrian,5 to 9,7,Fatal,Other,Unknown,Unknown,Yes,No,Yes,No,No,No,No,No,No,No,No,No,119,Wexford/Maryvale (119)
919516,2006/08/19 04:00:00+00,2345,23,QUEEN ST E,LESLIE ST,Minor Arterial,43.663245,-79.33019,Intersection,Traffic Signal,Clear,Dark,Dry,Fatal,Pedestrian,60 to 64,62,Fatal,Other,Unknown,Unknown,Yes,No,Yes,No,No,No,No,No,Yes,No,No,No,70,South Riverdale (70)
947697,2006/08/20 04:00:00+00,209,2,DUFFERIN ST,GERRY FITZGERALD DR W,Major Arterial,43.783845,-79.47009,Intersection,No Control,Clear,Dark,Dry,Non-Fatal Injury,Vehicle Owner,unknown,unknown,None,Other,Unknown,Unknown,No,No,Yes,No,No,No,No,Yes,Yes,No,No,No,34,Bathurst Manor (34)
923419,2006/08/20 04:00:00+00,1513,15,QUEEN ST W,COWAN AVE,Major Arterial,43.641245,-79.43309,Intersection,Stop Sign,Clear,Daylight,Dry,Non-Fatal Injury,Motorcycle Driver,55 to 59,57,Major,Motorcycle,Driving Properly,Normal,No,No,Yes,Yes,No,No,No,No,No,No,No,No,85,South Parkdale (85)
932873,2006/08/20 04:00:00+00,1543,15,COLLEGE ST,CLINTON ST,Major Arterial,43.655345,-79.41299000000002,Mid-Block,No Control,Clear,Daylight,Dry,Non-Fatal Injury,Passenger,35 to 39,37,Major,Other,Unknown,Unknown,No,Yes,Yes,No,No,No,No,No,No,No,No,No,81,Trinity-Bellwoods (81)
923341,2006/08/21 04:00:00+00,850,8,BIRCHMOUNT RD,GLENDOWER CRCT,Major Arterial,43.797145,-79.30519,Intersection,Traffic Signal,Clear,Daylight,Dry,Non-Fatal Injury,Driver,25 to 29,27,None,"Automobile, Station Wagon",Driving Properly,Normal,Yes,No,Yes,No,No,No,No,No,No,No,No,No,117,L'Amoreaux (117)
919517,2006/08/21 04:00:00+00,1040,10,DVP S EGLINTON RAMP E,EGLINTON AVE E,Major Arterial,43.72214500000001,-79.33279,Mid-Block,No Control,Clear,Daylight,Other,Non-Fatal Injury,Driver,55 to 59,57,None,"Automobile, Station Wagon",Driving Properly,Normal,Yes,No,Yes,No,No,No,No,No,No,No,No,No,44,Flemingdon Park (44)
919520,2006/08/21 04:00:00+00,1142,11,MCCOWAN RD,SHEPPARD AVE E,Major Arterial,43.789645,-79.25879,Intersection,Traffic Signal,Clear,Daylight,Dry,Non-Fatal Injury,Passenger,40 to 44,42,None,Other,Unknown,Unknown,Yes,No,Yes,No,No,No,No,No,Yes,No,No,No,128,Agincourt South-Malvern West (128)
936265,2006/08/21 04:00:00+00,1315,13,KHEDIVE AVE,SULTANA AVE,Local,43.728345,-79.43379,Intersection,Stop Sign,Clear,Daylight,Dry,Non-Fatal Injury,In-Line Skater,50 to 54,52,None,"Automobile, Station Wagon",Unknown,Unknown,Yes,No,Yes,No,No,No,No,No,Yes,No,No,No,32,Englemount-Lawrence (32)
911336,2006/06/28 04:00:00+00,1000,10,BIRCHMOUNT RD,MODERN RD,Major Arterial,43.744045,-79.28349,Intersection,Stop Sign,Clear,Daylight,Dry,Non-Fatal Injury,Vehicle Owner,unknown,unknown,Unknown,Other,Unknown,Unknown,No,Yes,Yes,No,No,No,No,No,No,No,No,No,126,Dorset Park (126)
906767,2006/06/05 04:00:00+00,1906,19,BLOOR ST W,HAVELOCK ST,Major Arterial,43.660445,-79.43239,Intersection,Traffic Signal,Clear,Daylight,Dry,Fatal,Pedestrian,75 to 79,77,Fatal,Other,Unknown,Unknown,Yes,No,Yes,No,No,No,No,No,Yes,No,No,No,83,Dufferin Grove (83)
907009,2006/06/06 04:00:00+00,1515,15,SPADINA AVE,CECIL ST,Major Arterial,43.656345,-79.39939,Mid-Block,No Control,Clear,Daylight,Dry,Non-Fatal Injury,Vehicle Owner,unknown,unknown,Unknown,Other,Unknown,Unknown,Yes,No,No,No,No,Yes,No,No,No,No,No,No,78,Kensington-Chinatown (78)
915319,2006/06/28 04:00:00+00,1357,13,KING ST W,YORK ST,Major Arterial,43.648545,-79.38089000000002,Mid-Block,No Control,Clear,Daylight,Dry,Non-Fatal Injury,Pedestrian,35 to 39,37,Major,Other,Unknown,Unknown,Yes,No,No,No,No,Yes,No,No,No,No,No,No,76,Bay Street Corridor (76)
911791,2006/06/06 04:00:00+00,1530,15,YONGE ST,DAVENPORT RD,Major Arterial,43.673345,-79.38809,Mid-Block,No Control,Clear,Daylight,Dry,Non-Fatal Injury,Driver,unknown,unknown,None,"Automobile, Station Wagon",Driving Properly,Unknown,No,Yes,Yes,No,No,No,No,No,No,No,No,No,98,Rosedale-Moore Park (98)
909380,2006/06/07 04:00:00+00,831,8,2275 MARKHAM RD,FINCH Aven E,Major Arterial,43.811245,-79.24289,Mid-Block,No Control,Clear,Daylight,Dry,Non-Fatal Injury,Passenger,40 to 44,42,Minor,Other,Unknown,Unknown,No,No,Yes,No,Yes,No,No,No,No,No,No,Yes,132,Malvern (132)
907251,2006/06/07 04:00:00+00,2141,21,ISLINGTON AVE,STEELES AVE W,Major Arterial,43.764345,-79.57489,Intersection,Traffic Signal,Clear,Dark,Dry,Non-Fatal Injury,Driver,45 to 49,47,Minimal,"Automobile, Station Wagon",Improper Lane Change,Normal,No,No,Yes,No,No,No,No,Yes,Yes,No,No,No,21,Humber Summit (21)
907409,2006/06/08 04:00:00+00,1543,15,LAKE SHORE BLVD W,PARK LAWN RD,Major Arterial,43.622945,-79.48119,Intersection,Traffic Signal,Clear,Daylight,Dry,Non-Fatal Injury,Passenger,0 to 4,2,None,Other,Unknown,Unknown,No,No,Yes,No,No,No,No,No,No,No,No,No,17,Mimico (includes Humber Bay Shores) (17)
910258,2006/06/08 04:00:00+00,2340,23,KING ST E,ST LAWRENCE ST,Major Arterial,43.656145,-79.35749,Mid-Block,No Control,Rain,Dark,Wet,Non-Fatal Injury,Motorcycle Driver,50 to 54,52,Major,Motorcycle,Driving Properly,Normal,No,No,No,Yes,No,No,No,No,No,No,No,No,73,Moss Park (73)
910277,2006/06/09 04:00:00+00,1704,17,CREEKWOOD DR,SILVERSAND PL,Local,43.786545,-79.21999,Mid-Block,No Control,Clear,Dark,Dry,Non-Fatal Injury,Vehicle Owner,unknown,unknown,Unknown,Other,Unknown,Unknown,Yes,No,Yes,No,No,No,No,No,Yes,No,No,No,135,Morningside (135)
907646,2006/06/10 04:00:00+00,934,9,MIDLAND AVE,ROMULUS DR,Major Arterial,43.747045,-79.26339,Mid-Block,No Control,Clear,Daylight,Dry,Fatal,Passenger,85 to 89,87,Fatal,Other,Unknown,Unknown,No,No,Yes,No,No,No,No,No,Yes,No,No,No,127,Bendale (127)
926382,2006/06/10 04:00:00+00,1646,16,OSSINGTON AVE,DUPONT ST,Major Arterial,43.670043,-79.428989,Intersection,Traffic Signal,Clear,Daylight,Dry,Non-Fatal Injury,Vehicle Owner,unknown,unknown,Unknown,Unknown,Unknown,Unknown,No,Yes,No,No,No,Yes,No,No,No,No,No,No,93,Dovercourt-Wallace Emerson-Junction (93)
910569,2006/06/11 04:00:00+00,1916,19,THURODALE AVE,RENFIELD ST,Local,43.702245,-79.49909,Mid-Block,No Control,Clear,Daylight,Dry,Non-Fatal Injury,Vehicle Owner,unknown,unknown,None,Other,Unknown,Unknown,No,No,No,Yes,No,No,No,No,No,No,No,No,30,Brookhaven-Amesbury (30)
914977,2006/06/13 04:00:00+00,858,8,LAKE SHORE BLVD W,JAMESON AVE,Major Arterial,43.633345,-79.43459,Intersection,Traffic Signal,Clear,Daylight,Dry,Non-Fatal Injury,Driver,40 to 44,42,Major,"Automobile, Station Wagon",Failed to Yield Right of Way,Normal,No,No,Yes,No,No,No,No,No,Yes,No,No,No,85,South Parkdale (85)
910951,2006/06/13 04:00:00+00,2124,21,SILVERSTONE DR,ALBION RD,Major Arterial,43.742945,-79.60009000000002,Intersection,Traffic Signal,Clear,Dark,Dry,Non-Fatal Injury,Driver,30 to 34,32,None,"Automobile, Station Wagon",Failed to Yield Right of Way,Normal,Yes,No,Yes,No,No,No,No,Yes,Yes,No,No,No,1,West Humber-Clairville (1)
908396,2006/06/14 04:00:00+00,556,5,LAKE SHORE BLVD W,YONGE ST,Major Arterial,43.644045,-79.37579000000002,Intersection,Traffic Signal,Clear,Daylight,Dry,Non-Fatal Injury,Driver,55 to 59,57,Major,"Automobile, Station Wagon",Disobeyed Traffic Control,Unknown,No,No,Yes,No,No,No,No,No,Yes,Yes,No,No,77,Waterfront Communities-The Island (77)
911012,2006/06/14 04:00:00+00,1440,14,KIPLING AVE,BETHRIDGE RD,Major Arterial,43.709145,-79.56549,Intersection,Traffic Signal,Clear,Daylight,Dry,Non-Fatal Injury,Driver,25 to 29,27,None,"Automobile, Station Wagon",Driving Properly,Unknown,Yes,No,Yes,No,No,No,No,No,No,No,No,No,1,West Humber-Clairville (1)
908674,2006/06/15 04:00:00+00,941,9,EGLINTON AVE E,REDPATH AVE,Major Arterial,43.707845,-79.39279,Intersection,Traffic Signal,Clear,Daylight,Dry,Non-Fatal Injury,Driver,65 to 69,67,None,"Automobile, Station Wagon",Failed to Yield Right of Way,Normal,Yes,No,Yes,No,No,No,No,No,Yes,No,No,No,104,Mount Pleasant West (104)
915000,2006/06/17 04:00:00+00,133,1,BATHURST ST,RICHMOND ST W,Major Arterial,43.646445,-79.40379,Intersection,Traffic Signal,Clear,Dark,Dry,Non-Fatal Injury,Driver,20 to 24,22,None,"Automobile, Station Wagon",Disobeyed Traffic Control,Normal,No,No,Yes,No,No,No,No,No,Yes,Yes,No,No,77,Waterfront Communities-The Island (77)
911355,2006/06/17 04:00:00+00,1325,13,SHUTER ST,BERKELEY ST,Minor Arterial,43.65664500000001,-79.36629,Intersection,No Control,Clear,Daylight,Dry,Non-Fatal Injury,Driver,50 to 54,52,None,"Automobile, Station Wagon",Driving Properly,Normal,No,Yes,Yes,No,No,No,No,No,No,No,No,No,73,Moss Park (73)
911964,2006/06/17 04:00:00+00,1755,17,FINCH AVE E,YONGE ST,Major Arterial,43.780045,-79.41399,Mid-Block,No Control,Clear,Daylight,Dry,Non-Fatal Injury,Vehicle Owner,unknown,unknown,Unknown,Other,Unknown,Unknown,Yes,No,Yes,No,No,No,No,No,No,No,No,No,51,Willowdale East (51)
911839,2006/06/18 04:00:00+00,215,2,WOODBINE AVE,DANFORTH AVE,Major Arterial,43.685645,-79.31279,Intersection,Traffic Signal,Clear,Dark,Dry,Non-Fatal Injury,Driver,20 to 24,22,None,"Automobile, Station Wagon",Failed to Yield Right of Way,"Ability Impaired, Alcohol",No,Yes,Yes,No,No,No,No,No,Yes,No,Yes,No,62,East End-Danforth (62)
911972,2006/06/18 04:00:00+00,2105,21,BLOOR ST W,AVENUE RD,Major Arterial,43.66884500000001,-79.39369,Mid-Block,No Control,Clear,"Dusk, artificial",Dry,Non-Fatal Injury,Vehicle Owner,unknown,unknown,Unknown,Other,Unknown,Unknown,No,Yes,Yes,No,No,No,No,No,Yes,No,No,No,95,Annex (95)
911524,2006/06/18 04:00:00+00,2210,22,ST CLAIR AVE E,WESTBOURNE AVE,Major Arterial,43.709345,-79.29289,Intersection,Traffic Signal,Clear,Dark,Dry,Non-Fatal Injury,Vehicle Owner,unknown,unknown,Unknown,Other,Unknown,Unknown,No,Yes,Yes,No,No,No,No,No,Yes,Yes,No,No,120,Clairlea-Birchmount (120)
909071,2006/06/18 04:00:00+00,2308,23,REXDALE BLVD,QUEENS PLATE DR,Major Arterial,43.718845,-79.60229,Mid-Block,No Control,Clear,Dark,Dry,Non-Fatal Injury,Vehicle Owner,unknown,unknown,Unknown,Other,Unknown,Unknown,No,No,Yes,No,No,No,No,No,No,No,No,No,1,West Humber-Clairville (1)
909261,2006/06/19 04:00:00+00,1208,12,LAKE SHORE BLVD W,FIFTH ST,Major Arterial,43.601245,-79.50299,Intersection,Traffic Signal,Clear,Daylight,Dry,Fatal,Pedestrian,85 to 89,87,Fatal,Other,Unknown,Unknown,Yes,No,No,No,No,Yes,No,No,No,No,No,No,18,New Toronto (18)
911973,2006/06/19 04:00:00+00,1700,17,SHEPPARD AVE W,FAYWOOD BLVD,Major Arterial,43.752645,-79.45189,Intersection,Traffic Signal,Clear,Daylight,Dry,Non-Fatal Injury,Driver,50 to 54,52,None,"Automobile, Station Wagon",Driving Properly,Normal,Yes,No,Yes,No,No,No,No,No,No,No,No,No,33,Clanton Park (33)
911449,2006/06/20 04:00:00+00,2048,20,EGLINTON Aven W,OLD FOREST HILL Road,Major Arterial,43.701345,-79.42379,Mid-Block,Traffic Signal,Clear,Dark,Dry,Non-Fatal Injury,Driver,30 to 34,32,Major,"Automobile, Station Wagon",Improper Passing,"Ability Impaired, Alcohol",No,No,Yes,No,No,No,No,Yes,Yes,No,Yes,No,101,Forest Hill South (101)
909409,2006/06/20 04:00:00+00,2055,20,BARTLEY DR,TISDALE AVE,Collector,43.722245,-79.30709,Intersection,Stop Sign,Clear,Dark,Dry,Fatal,Motorcycle Driver,30 to 34,32,Fatal,Motorcycle,Exceeding Speed Limit,Normal,No,No,Yes,Yes,No,No,No,Yes,Yes,No,No,No,43,Victoria Village (43)
918059,2006/06/21 04:00:00+00,800,8,DANFORTH AVE,WOODBINE AVE,Major Arterial,43.685645,-79.31279,Intersection,Traffic Signal,Clear,Daylight,Dry,Non-Fatal Injury,Pedestrian,40 to 44,42,Major,Other,Unknown,Unknown,Yes,Yes,No,No,No,No,No,No,No,No,No,No,62,East End-Danforth (62)
916584,2006/06/21 04:00:00+00,850,8,WELLINGTON ST W,YORK ST,Minor Arterial,43.646545,-79.38299,Intersection,Traffic Signal,Clear,Daylight,Dry,Non-Fatal Injury,Driver,unknown,unknown,None,"Automobile, Station Wagon",Driving Properly,Normal,No,Yes,Yes,No,No,No,No,No,No,No,No,No,76,Bay Street Corridor (76)
909745,2006/06/22 04:00:00+00,2210,22,UNIVERSITY AVE,DUNDAS ST W,Major Arterial,43.65514500000001,-79.38849,Mid-Block,No Control,Clear,Dark,Dry,Non-Fatal Injury,Driver,25 to 29,27,None,"Automobile, Station Wagon",Driving Properly,Normal,Yes,No,Yes,No,No,No,No,No,No,No,No,No,76,Bay Street Corridor (76)
913254,2006/06/24 04:00:00+00,310,3,QUEEN ST W,DOWLING AVE,Major Arterial,43.639945,-79.43989,Intersection,Stop Sign,Clear,Dark,Dry,Non-Fatal Injury,Vehicle Owner,unknown,unknown,None,Other,Unknown,Unknown,No,Yes,Yes,No,No,No,No,No,No,No,No,No,86,Roncesvalles (86)
913263,2006/06/24 04:00:00+00,1820,18,KIPLING Aven,NEW TORONTO Stre,Major Arterial,43.604545,-79.51959000000002,Mid-Block,No Control,Clear,Daylight,Dry,Non-Fatal Injury,Driver,20 to 24,22,Major,"Automobile, Station Wagon",Other,Normal,No,No,Yes,No,No,No,No,No,No,No,No,No,18,New Toronto (18)
913288,2006/06/25 04:00:00+00,1226,12,PAPE AVE,WESTWOOD AVE,Major Arterial,43.686645,-79.34779,Intersection,No Control,Clear,Daylight,Dry,Non-Fatal Injury,Cyclist,35 to 39,37,Major,Bicycle,Unknown,Unknown,No,Yes,Yes,No,No,No,No,No,No,No,No,No,59,Danforth East York (59)
911228,2006/06/25 04:00:00+00,1729,17,LAKE SHORE BLVD E,CHERRY ST,Major Arterial,43.648146,-79.354793,Intersection,Traffic Signal,Clear,Daylight,Dry,Non-Fatal Injury,Motorcycle Passenger,40 to 44,42,Major,Other,Unknown,Unknown,No,No,No,Yes,No,No,No,Yes,Yes,No,No,No,77,Waterfront Communities-The Island (77)
915300,2006/06/28 04:00:00+00,1730,17,EGLINTON AVE W,GLENHAVEN ST,Major Arterial,43.691345,-79.46969,Intersection,Stop Sign,Rain,Daylight,Wet,Non-Fatal Injury,Vehicle Owner,unknown,unknown,None,Other,Unknown,Unknown,No,No,Yes,No,Yes,No,No,No,Yes,No,No,No,110,Keelesdale-Eglinton West (110)
923585,2006/08/22 04:00:00+00,1104,11,55 SUNNYPOINT CRES,Unknown,Local,43.714545,-79.23159,Mid-Block,No Control,Clear,Daylight,Dry,Non-Fatal Injury,Driver,35 to 39,37,Major,"Automobile, Station Wagon",Lost control,Medical or Physical Disability,No,No,Yes,No,No,No,No,Yes,Yes,No,No,Yes,123,Cliffcrest (123)
919681,2006/08/22 04:00:00+00,2004,20,DUFFERIN ST,LIVINGSTONE AVE,Major Arterial,43.696445,-79.45079,Intersection,Stop Sign,Clear,Daylight,Dry,Non-Fatal Injury,Motorcycle Driver,25 to 29,27,Major,Motorcycle,Driving Properly,Normal,No,No,Yes,Yes,No,No,No,No,No,No,No,No,108,Briar Hill-Belgravia (108)
919684,2006/08/22 04:00:00+00,2046,20,EGLINTON AVE E,BELLAMY RD N,Major Arterial,43.740245,-79.23209,Intersection,Traffic Signal,Clear,Dark,Dry,Non-Fatal Injury,Vehicle Owner,unknown,unknown,None,Other,Unknown,Unknown,Yes,No,Yes,No,No,No,No,No,Yes,No,No,No,138,Eglinton East (138)
920271,2006/08/23 04:00:00+00,954,9,F G GARDINER XY W  W,GARDINER LAKESHORE W RAMP,Unknown,43.633245,-79.42779,Exit Ramp Westbound,No Control,Clear,Daylight,Dry,Non-Fatal Injury,Driver,unknown,unknown,None,"Automobile, Station Wagon",Failed to Yield Right of Way,Unknown,No,No,Yes,No,No,No,No,No,Yes,No,No,No,82,Niagara (82)
923640,2006/08/24 04:00:00+00,600,6,JOHN ST,QUEEN ST W,Major Arterial,43.650145,-79.39119000000002,Mid-Block,No Control,Clear,Dawn,Dry,Non-Fatal Injury,Vehicle Owner,unknown,unknown,None,Other,Unknown,Unknown,Yes,No,Yes,No,No,No,No,No,No,No,No,Yes,78,Kensington-Chinatown (78)
923655,2006/08/24 04:00:00+00,2126,21,ATTWELL DR,READING CRT,Collector,43.690745,-79.58729,Intersection,No Control,Clear,Daylight,Dry,Non-Fatal Injury,Driver,15 to 19,17,Major,"Automobile, Station Wagon",Driving Properly,Normal,No,No,Yes,No,No,No,No,Yes,Yes,No,Yes,No,1,West Humber-Clairville (1)
920395,2006/08/24 04:00:00+00,2130,21,MCCOWAN RD,STEELES AVE E,Major Arterial,43.831045,-79.27519000000002,Intersection,Traffic Signal,Clear,Dark,Dry,Non-Fatal Injury,Driver,unknown,unknown,None,"Automobile, Station Wagon",Unknown,Unknown,Yes,No,Yes,No,No,No,No,No,No,No,No,No,130,Milliken (130)
925640,2006/08/25 04:00:00+00,1700,17,2111 LAKE SHORE BLVD W,Unknown,Major Arterial,43.628546,-79.478587,Mid-Block,No Control,Clear,Daylight,Wet,Non-Fatal Injury,Motorcycle Driver,30 to 34,32,Major,Motorcycle,Speed too Fast For Condition,Inattentive,No,No,Yes,Yes,No,No,No,Yes,Yes,No,No,No,17,Mimico (includes Humber Bay Shores) (17)
920502,2006/08/25 04:00:00+00,2330,23,LESLIE ST,COLDWATER RD,Major Arterial,43.755245,-79.36049,Mid-Block,No Control,Rain,Dark,Wet,Fatal,Driver,60 to 64,62,Fatal,"Automobile, Station Wagon",Failed to Yield Right of Way,Unknown,No,No,Yes,No,No,No,No,No,Yes,No,No,No,40,St.Andrew-Windfields (40)
924041,2006/08/26 04:00:00+00,1536,15,OSLER ST,DAVENPORT RD,Local,43.671045,-79.45999,Mid-Block,No Control,Clear,Daylight,Dry,Non-Fatal Injury,Driver,30 to 34,32,None,"Automobile, Station Wagon",Driving Properly,Normal,Yes,No,Yes,No,No,No,No,No,No,No,No,No,91,Weston-Pellam Park (91)
924064,2006/08/26 04:00:00+00,2056,20,DUPONT ST,EDWIN AVE,Major Arterial,43.665045,-79.45459,Mid-Block,No Control,Rain,Dark,Wet,Non-Fatal Injury,Driver,55 to 59,57,None,"Automobile, Station Wagon",Driving Properly,Normal,Yes,No,Yes,No,No,No,No,No,No,No,No,No,93,Dovercourt-Wallace Emerson-Junction (93)
920690,2006/08/27 04:00:00+00,1928,19,F G GARDINER XY  W,BATHURST ST,Unknown,43.637945,-79.40389,Mid-Block,No Control,Clear,Daylight,Dry,Fatal,Motorcycle Driver,30 to 34,32,Fatal,Motorcycle,Lost control,Unknown,No,No,No,Yes,No,No,No,No,No,No,No,No,82,Niagara (82)
921084,2006/08/29 04:00:00+00,921,9,3680 KEELE ST,Unknown,Major Arterial,43.753345,-79.48849,Mid-Block,No Control,Clear,Daylight,Dry,Non-Fatal Injury,Pedestrian,75 to 79,77,Major,Other,Unknown,Unknown,Yes,No,Yes,No,No,No,No,No,No,No,No,No,27,York University Heights (27)
926117,2006/08/29 04:00:00+00,1415,14,EASTERN AVE,MARIGOLD AVE,Minor Arterial,43.660845,-79.33029,Intersection,No Control,Clear,Daylight,Dry,Non-Fatal Injury,Motorcycle Driver,35 to 39,37,Major,Motorcycle,Driving Properly,Normal,No,No,Yes,Yes,No,No,No,No,No,No,No,No,70,South Riverdale (70)
925202,2006/08/29 04:00:00+00,1700,17,LESLIE ST,LAWRENCE AVE E,Major Arterial,43.734545,-79.35599,Intersection,Traffic Signal,Clear,Daylight,Dry,Non-Fatal Injury,Driver,40 to 44,42,None,"Automobile, Station Wagon",Driving Properly,Normal,Yes,No,Yes,No,No,No,No,No,No,No,No,No,42,Banbury-Don Mills (42)
926125,2006/08/29 04:00:00+00,2114,21,LAWRENCE AVE W,BENTON RD,Major Arterial,43.710245,-79.47189,Intersection,Traffic Signal,Clear,Dark,Dry,Non-Fatal Injury,Motorcycle Driver,15 to 19,17,Major,Motorcycle,Driving Properly,Unknown,No,No,Yes,Yes,No,No,No,No,Yes,No,No,No,30,Brookhaven-Amesbury (30)
925966,2006/08/31 04:00:00+00,117,1,YONGE ST,BREADALBANE ST,Major Arterial,43.663845,-79.38419,Intersection,Stop Sign,Clear,Dark,Dry,Non-Fatal Injury,Driver,25 to 29,27,None,"Automobile, Station Wagon",Driving Properly,Normal,No,Yes,Yes,No,No,No,No,No,No,No,No,No,75,Church-Yonge Corridor (75)
925968,2006/08/31 04:00:00+00,740,7,SHEPPARD AVE E,REAN DR,Major Arterial,43.767745,-79.38309,Intersection,Traffic Signal,Clear,Daylight,Dry,Non-Fatal Injury,Driver,30 to 34,32,None,"Automobile, Station Wagon",Driving Properly,Normal,Yes,No,Yes,No,No,No,No,No,No,No,No,No,52,Bayview Village (52)
946225,2006/08/31 04:00:00+00,1610,16,DUNDAS ST E,BROADVIEW AVE,Major Arterial,43.662445,-79.35139000000002,Intersection,Traffic Signal,Clear,Daylight,Dry,Non-Fatal Injury,Driver,80 to 84,82,None,"Automobile, Station Wagon",Failed to Yield Right of Way,Normal,No,No,Yes,Yes,No,No,No,No,Yes,No,No,No,70,South Riverdale (70)
925963,2006/08/31 04:00:00+00,2005,20,VALENTINE DR,SHAMOKIN DR,Local,43.761645,-79.34459,Intersection,Stop Sign,Clear,Dark,Dry,Non-Fatal Injury,Driver,55 to 59,57,None,"Automobile, Station Wagon",Driving Properly,Normal,No,Yes,Yes,No,No,No,No,No,No,No,No,No,45,Parkwoods-Donalda (45)
921907,2006/09/02 04:00:00+00,315,3,CHURCH ST,COLBORNE ST,Minor Arterial,43.649245,-79.37409,Intersection,Stop Sign,Clear,Dark,Dry,Non-Fatal Injury,Passenger,unknown,unknown,Minimal,Other,Unknown,Unknown,No,No,Yes,No,No,No,No,Yes,Yes,No,No,No,75,Church-Yonge Corridor (75)
921910,2006/09/02 04:00:00+00,1255,12,RENFORTH DR,ERINGATE DR,Minor Arterial,43.659945,-79.58329,Intersection,Traffic Signal,Rain,Daylight,Wet,Non-Fatal Injury,Driver,80 to 84,82,Major,"Automobile, Station Wagon",Other,Medical or Physical Disability,No,No,Yes,No,No,No,No,No,No,No,No,Yes,11,Eringate-Centennial-West Deane (11)
927513,2006/09/04 04:00:00+00,1210,12,70 HUMBERLINE DR,Unknown,Collector,43.731845,-79.61649,Mid-Block,No Control,Clear,Daylight,Dry,Non-Fatal Injury,Passenger,10 to 14,12,Major,Other,Unknown,Unknown,Yes,No,Yes,No,No,No,No,No,No,No,No,No,1,West Humber-Clairville (1)
927585,2006/09/05 04:00:00+00,930,9,400 S JANE ST RAMP  S,JANE ST Stre,Major Arterial,43.711045,-79.50599,Exit Ramp Southbound,Traffic Signal,Clear,Daylight,Dry,Non-Fatal Injury,Driver,35 to 39,37,Major,"Automobile, Station Wagon",Driving Properly,Normal,No,No,Yes,No,No,No,No,No,Yes,No,No,No,28,Rustic (28)
922379,2006/09/05 04:00:00+00,1115,11,ST CLAIR AVE W,LANSDOWNE AVE,Major Arterial,43.676345,-79.45059,Intersection,Traffic Signal,Clear,Daylight,Dry,Non-Fatal Injury,Passenger,30 to 34,32,Major,Other,Unknown,Unknown,No,No,Yes,No,No,No,No,No,Yes,No,No,No,92,Corso Italia-Davenport (92)
927745,2006/09/05 04:00:00+00,2226,22,QUEEN ST E,SPRUCE HILL RD,Minor Arterial,43.672545,-79.28809,Mid-Block,No Control,Clear,Dark,Dry,Non-Fatal Injury,Driver,25 to 29,27,None,"Automobile, Station Wagon",Driving Properly,Normal,Yes,No,Yes,No,No,No,No,No,No,No,No,No,63,The Beaches (63)
922913,2006/09/08 04:00:00+00,1025,10,NEILSON RD,ELLESMERE RD,Major Arterial,43.782545,-79.20499000000002,Intersection,Traffic Signal,Clear,Daylight,Dry,Non-Fatal Injury,Passenger,35 to 39,37,Minimal,Other,Unknown,Unknown,Yes,No,No,No,No,Yes,No,No,No,No,No,No,135,Morningside (135)
927891,2006/09/08 04:00:00+00,1252,12,EGLINTON AVE W,BLACK CREEK DR,Major Arterial,43.687745,-79.48549,Mid-Block,No Control,Clear,Daylight,Dry,Non-Fatal Injury,Driver,30 to 34,32,None,"Automobile, Station Wagon",Following too Close,Normal,No,No,Yes,No,No,No,No,No,Yes,No,No,No,110,Keelesdale-Eglinton West (110)
922947,2006/09/09 04:00:00+00,19,1,DANFORTH AVE,GILLARD AVE,Major Arterial,43.682345,-79.32829,Intersection,No Control,Rain,Dark,Wet,Non-Fatal Injury,Passenger,20 to 24,22,None,Other,Unknown,Unknown,Yes,No,Yes,No,No,No,No,No,No,No,No,No,66,Danforth (66)
922948,2006/09/09 04:00:00+00,308,3,MORNINGSIDE AVE,SHEPPARD AVE E,Major Arterial,43.801945,-79.19979000000002,Intersection,Traffic Signal,Clear,Dark,Wet,Fatal,Passenger,25 to 29,27,Fatal,Other,Unknown,Unknown,No,No,Yes,No,Yes,No,No,No,Yes,Yes,No,No,131,Rouge (131)
928049,2006/09/09 04:00:00+00,2017,20,1132 LESLIE ST,Unknown,Major Arterial,43.718645,-79.35039,Mid-Block,Stop Sign,Clear,Dark,Dry,Non-Fatal Injury,Vehicle Owner,unknown,unknown,Unknown,Other,Unknown,Unknown,No,No,Yes,No,No,No,No,No,Yes,No,No,No,42,Banbury-Don Mills (42)
911521,2006/06/29 04:00:00+00,954,9,WESTON RD,JASPER AVE,Minor Arterial,43.683745,-79.48249,Intersection,No Control,Clear,Daylight,Dry,Non-Fatal Injury,Vehicle Owner,unknown,unknown,Unknown,Other,Unknown,Unknown,No,Yes,Yes,No,No,No,No,No,No,No,No,No,111,Rockcliffe-Smythe (111)
911540,2006/06/30 04:00:00+00,50,5,LAWRENCE AVE E,TOWER DR,Major Arterial,43.744545,-79.29829000000002,Intersection,Stop Sign,Clear,Dark,Dry,Non-Fatal Injury,Other Property Owner,unknown,unknown,None,Other,Unknown,Unknown,No,No,Yes,No,No,No,No,Yes,Yes,No,No,No,119,Wexford/Maryvale (119)
915777,2006/06/30 04:00:00+00,926,9,57 ELLESMERE RD,VICTORIA PARK Aven,Major Arterial,43.758145,-79.31389,Mid-Block,No Control,Clear,Daylight,Dry,Non-Fatal Injury,Passenger,45 to 49,47,Major,Other,Unknown,Unknown,No,No,Yes,No,No,No,No,No,No,No,No,No,119,Wexford/Maryvale (119)
919331,2006/06/30 04:00:00+00,1208,12,SENLAC RD,BURNETT AVE,Minor Arterial,43.765245,-79.42519,Mid-Block,No Control,Clear,Daylight,Dry,Non-Fatal Injury,Vehicle Owner,unknown,unknown,None,Other,Unknown,Unknown,Yes,No,Yes,No,No,No,No,No,Yes,No,No,No,38,Lansing-Westgate (38)
911913,2006/07/04 04:00:00+00,1624,16,DON MILLS RD,VAN HORNE AVE,Major Arterial,43.787345,-79.35299,Intersection,Traffic Signal,Clear,Daylight,Dry,Non-Fatal Injury,Vehicle Owner,unknown,unknown,None,Other,Unknown,Unknown,No,No,Yes,No,Yes,No,No,No,Yes,Yes,No,No,47,Don Valley Village (47)
911915,2006/07/04 04:00:00+00,1827,18,LAKE SHORE BLVD W,SECOND ST,Major Arterial,43.602045,-79.49909,Mid-Block,No Control,Clear,Daylight,Dry,Non-Fatal Injury,Driver,unknown,unknown,None,"Automobile, Station Wagon",Unknown,Unknown,Yes,No,Yes,No,No,No,No,No,No,No,No,No,18,New Toronto (18)
916243,2006/07/04 04:00:00+00,2015,20,LAWRENCE AVE E,OVERTURE RD,Major Arterial,43.765445,-79.19949,Intersection,Traffic Signal,Clear,Daylight,Dry,Non-Fatal Injury,Driver,15 to 19,17,None,"Automobile, Station Wagon",Following too Close,Normal,No,No,Yes,No,No,No,No,No,Yes,No,No,No,136,West Hill (136)
916168,2006/07/05 04:00:00+00,2130,21,VICTORIA PARK AVE,TERRAVIEW BLVD,Major Arterial,43.764545,-79.31819,Intersection,Stop Sign,Clear,Dark,Dry,Non-Fatal Injury,Motorcycle Driver,25 to 29,27,Major,Motorcycle,Driving Properly,Normal,No,No,Yes,Yes,No,No,No,No,Yes,No,No,No,119,Wexford/Maryvale (119)
912714,2006/07/07 04:00:00+00,127,1,HARBOUR ST,YORK ST,Major Arterial,43.640945,-79.38069,Intersection,Traffic Signal,Clear,Dark,Dry,Non-Fatal Injury,Passenger,20 to 24,22,Major,Other,Unknown,Unknown,No,No,Yes,No,No,No,No,No,Yes,Yes,No,No,77,Waterfront Communities-The Island (77)
916566,2006/07/07 04:00:00+00,1414,14,YONGE ST,PLEASANT AVE,Major Arterial,43.687645,-79.39389,Mid-Block,No Control,Clear,Daylight,Dry,Non-Fatal Injury,Vehicle Owner,unknown,unknown,Unknown,Other,Unknown,Unknown,Yes,No,No,No,No,Yes,No,No,No,No,No,No,98,Rosedale-Moore Park (98)
912782,2006/07/08 04:00:00+00,1650,16,REES ST,LAKE SHORE BLVD W,Major Arterial,43.639445,-79.38679,Intersection,Traffic Signal,Clear,Daylight,Dry,Non-Fatal Injury,Driver,25 to 29,27,None,"Automobile, Station Wagon",Driving Properly,Normal,No,No,Yes,No,No,No,No,No,Yes,No,No,No,77,Waterfront Communities-The Island (77)
912859,2006/07/09 04:00:00+00,1823,18,LAKE SHORE BLVD W,BATHURST ST,Major Arterial,43.636445,-79.39959,Intersection,Traffic Signal,Clear,Daylight,Dry,Non-Fatal Injury,Driver,35 to 39,37,None,"Automobile, Station Wagon",Driving Properly,Normal,No,No,Yes,No,No,No,No,No,Yes,Yes,No,No,77,Waterfront Communities-The Island (77)
917569,2006/07/10 04:00:00+00,1310,13,2609 LAKE SHORE BLVD W,Unknown,Major Arterial,43.605445,-79.49109,Mid-Block,No Control,Rain,Daylight,Wet,Non-Fatal Injury,Vehicle Owner,unknown,unknown,Unknown,Other,Unknown,Unknown,No,No,Yes,No,No,No,No,No,Yes,No,No,No,17,Mimico (includes Humber Bay Shores) (17)
917526,2006/07/10 04:00:00+00,1313,13,MARTIN GROVE RD,LEXINGTON AVE,Minor Arterial,43.744245,-79.59539000000002,Intersection,Traffic Signal,Clear,Daylight,Dry,Non-Fatal Injury,Vehicle Owner,unknown,unknown,None,Other,Unknown,Unknown,No,No,Yes,No,No,No,No,No,No,No,No,No,2,Mount Olive-Silverstone-Jamestown (2)
913040,2006/07/10 04:00:00+00,1758,17,QUEEN ST E,NEVILLE BLVD,Minor Arterial,43.673845,-79.28189,Intersection,Stop Sign,Clear,Daylight,Dry,Non-Fatal Injury,Driver,85 to 89,87,None,"Automobile, Station Wagon",Driving Properly,Normal,Yes,No,Yes,No,No,No,No,No,No,No,No,No,63,The Beaches (63)
917567,2006/07/11 04:00:00+00,825,8,MEADOWVALE RD,ROTARY DR,Minor Arterial,43.807445,-79.17039,Mid-Block,No Control,Clear,Daylight,Dry,Non-Fatal Injury,Driver,55 to 59,57,None,Other,Failed to Yield Right of Way,Inattentive,Yes,No,No,No,No,No,No,No,Yes,No,No,No,131,Rouge (131)
917568,2006/07/11 04:00:00+00,1815,18,WINNETT AVE,HURSTING AVE,Local,43.686245,-79.43189,Mid-Block,No Control,Clear,Daylight,Dry,Non-Fatal Injury,Driver,55 to 59,57,None,"Automobile, Station Wagon",Driving Properly,Normal,No,Yes,Yes,No,No,No,No,No,No,No,No,No,107,Oakwood Village (107)
917719,2006/07/12 04:00:00+00,150,1,BURNHAMTHORPE RD,TRANQUIL DR,Major Arterial,43.643045,-79.57379,Mid-Block,No Control,Clear,Dark,Dry,Non-Fatal Injury,Motorcycle Passenger,25 to 29,27,Minimal,Other,Unknown,Unknown,No,No,No,Yes,No,No,No,Yes,Yes,No,No,No,11,Eringate-Centennial-West Deane (11)
917731,2006/07/12 04:00:00+00,1600,16,BRIMLEY RD,DORCOT AVE,Major Arterial,43.758945,-79.25709,Intersection,Traffic Signal,Other,Daylight,Other,Non-Fatal Injury,Unknown,unknown,unknown,None,"Automobile, Station Wagon",Unknown,Unknown,Yes,No,Yes,No,No,No,No,No,No,No,No,No,127,Bendale (127)
917847,2006/07/13 04:00:00+00,1100,11,QUEENS PR S WELLESLEY RAMP E,WELLESLEY ST W,Minor Arterial,43.663145,-79.39269,Intersection,Stop Sign,Clear,Daylight,Dry,Non-Fatal Injury,Driver,45 to 49,47,None,"Automobile, Station Wagon",Other,Inattentive,No,Yes,Yes,No,No,No,No,No,No,No,No,No,76,Bay Street Corridor (76)
917855,2006/07/13 04:00:00+00,1310,13,SPADINA AVE,RICHMOND ST W,Major Arterial,43.647845,-79.39599,Intersection,Traffic Signal,Clear,Daylight,Dry,Non-Fatal Injury,Vehicle Owner,unknown,unknown,Unknown,Other,Unknown,Unknown,Yes,No,No,No,No,Yes,No,No,No,No,No,No,77,Waterfront Communities-The Island (77)
918102,2006/07/14 04:00:00+00,920,9,DUFFERIN ST,DUNDAS ST W,Minor Arterial,43.649645,-79.43139000000002,Intersection,Traffic Signal,Clear,Daylight,Dry,Non-Fatal Injury,Vehicle Owner,unknown,unknown,Unknown,Other,Unknown,Unknown,No,Yes,Yes,No,No,No,No,Yes,Yes,Yes,No,No,84,Little Portugal (84)
918124,2006/07/14 04:00:00+00,1310,13,BURNHAMTHORPE RD,OLD BURNHAMTHORPE RD,Major Arterial,43.642845,-79.57469,Mid-Block,No Control,Clear,Daylight,Dry,Non-Fatal Injury,Vehicle Owner,unknown,unknown,Unknown,Other,Unknown,Unknown,Yes,No,No,No,No,Yes,No,No,No,No,No,No,11,Eringate-Centennial-West Deane (11)
919596,2006/07/14 04:00:00+00,1600,16,CHAPLIN CRES,EGLINTON AVE W,Major Arterial,43.702745,-79.41739,Intersection,Traffic Signal,Clear,Daylight,Dry,Non-Fatal Injury,Passenger,40 to 44,42,Major,Other,Unknown,Unknown,No,No,Yes,No,No,No,No,No,No,No,No,No,102,Forest Hill North (102)
913927,2006/07/16 04:00:00+00,1255,12,BAYVIEW AVE,SOUDAN AVE,Major Arterial,43.710745,-79.37709,Mid-Block,No Control,Clear,Daylight,Dry,Non-Fatal Injury,Passenger,0 to 4,2,Minimal,Other,Unknown,Unknown,No,No,Yes,No,No,No,No,No,No,No,No,Yes,56,Leaside-Bennington (56)
918129,2006/07/17 04:00:00+00,1958,19,BATHURST ST,RICHMOND ST W,Major Arterial,43.646445,-79.40379,Intersection,Traffic Signal,Clear,Daylight,Dry,Non-Fatal Injury,Motorcycle Driver,25 to 29,27,Major,Motorcycle,Other,Unknown,No,No,Yes,Yes,No,No,No,Yes,Yes,No,No,No,77,Waterfront Communities-The Island (77)
897313,2006/04/12 04:00:00+00,1813,18,HIGHWAY 27 N  N,HARNESS RD,Major Arterial,43.722345,-79.59789,Mid-Block,No Control,Rain,Dark,Wet,Non-Fatal Injury,Vehicle Owner,unknown,unknown,None,Other,Unknown,Unknown,Yes,No,Yes,No,No,No,No,No,No,No,No,No,1,West Humber-Clairville (1)
892658,2006/03/11 05:00:00+00,852,8,BLOOR ST W,DUNDAS ST W,Major Arterial,43.656345,-79.45249,Intersection,Traffic Signal,Clear,Daylight,Dry,Fatal,Pedestrian,65 to 69,67,Fatal,Other,Unknown,Unknown,Yes,No,Yes,No,No,No,No,No,Yes,No,No,No,88,High Park North (88)
892810,2006/03/11 05:00:00+00,915,9,MORNINGSIDE AVE,SHEPPARD AVE E,Major Arterial,43.801943,-79.199786,Intersection,Traffic Signal,Clear,Daylight,Dry,Fatal,Motorcycle Driver,45 to 49,47,Fatal,Motorcycle,Disobeyed Traffic Control,Unknown,No,No,Yes,Yes,No,No,No,No,Yes,Yes,No,No,131,Rouge (131)
892682,2006/03/12 05:00:00+00,240,2,EGLINTON AVE E,COMMONWEALTH AVE,Major Arterial,43.734945,-79.25619,Mid-Block,No Control,Clear,Dark,Dry,Fatal,Pedestrian,40 to 44,42,Fatal,Other,Unknown,Unknown,Yes,No,Yes,No,No,No,No,No,No,No,Yes,No,138,Eglinton East (138)
892913,2006/03/12 05:00:00+00,1903,19,OSSINGTON AVE,DUNDAS ST W,Major Arterial,43.649345,-79.42079,Intersection,Traffic Signal,Clear,Dark,Dry,Non-Fatal Injury,Driver,30 to 34,32,None,"Automobile, Station Wagon",Failed to Yield Right of Way,"Ability Impaired, Alcohol Over .08",Yes,No,Yes,No,No,No,No,No,Yes,No,Yes,No,81,Trinity-Bellwoods (81)
893251,2006/03/15 05:00:00+00,1535,15,ISLINGTON AVE,DIXON RD,Major Arterial,43.697045,-79.54669,Intersection,Traffic Signal,Clear,Daylight,Dry,Fatal,Pedestrian,20 to 24,22,Fatal,Other,Unknown,Unknown,Yes,No,Yes,No,No,No,No,No,No,No,No,No,6,Kingsview Village-The Westway (6)
896606,2006/03/16 05:00:00+00,925,9,BIRCHMOUNT RD,SANWOOD BLVD,Major Arterial,43.816245,-79.31449,Intersection,Traffic Signal,Clear,Daylight,Dry,Non-Fatal Injury,Passenger,55 to 59,57,Major,Other,Unknown,Unknown,No,No,Yes,No,No,No,No,No,Yes,Yes,No,No,116,Steeles (116)
894953,2006/03/16 05:00:00+00,1710,17,DUNDAS ST E,PEMBROKE ST,Major Arterial,43.65814500000001,-79.37239,Intersection,Pedestrian Crossover,Clear,Daylight,Dry,Non-Fatal Injury,Driver,25 to 29,27,None,"Automobile, Station Wagon",Failed to Yield Right of Way,Normal,Yes,No,Yes,No,No,No,No,No,Yes,No,No,No,73,Moss Park (73)
897335,2006/03/17 05:00:00+00,642,6,SYMINGTON AVE,ANTLER ST,Collector,43.663945,-79.45049,Intersection,Stop Sign,Clear,Daylight,Dry,Non-Fatal Injury,Driver,40 to 44,42,None,"Automobile, Station Wagon",Failed to Yield Right of Way,Normal,Yes,No,Yes,No,No,No,No,No,Yes,No,No,No,93,Dovercourt-Wallace Emerson-Junction (93)
897348,2006/03/17 05:00:00+00,1554,15,BLOOR ST W,BATHURST ST,Major Arterial,43.665145,-79.41129000000002,Intersection,No Control,Clear,Daylight,Dry,Non-Fatal Injury,Driver,40 to 44,42,None,"Automobile, Station Wagon",Driving Properly,Normal,Yes,No,Yes,No,No,No,No,No,No,No,No,No,95,Annex (95)
893720,2006/03/18 05:00:00+00,343,3,WILLOWDALE AVE,MCKEE AVE,Minor Arterial,43.774945,-79.40429,Intersection,Stop Sign,Clear,Dark,Dry,Non-Fatal Injury,Driver,25 to 29,27,None,"Automobile, Station Wagon",Disobeyed Traffic Control,Had Been Drinking,No,No,Yes,No,No,No,No,No,Yes,No,No,No,51,Willowdale East (51)
908179,2006/03/18 05:00:00+00,2120,21,STEELES AVE W,SHALE GT,Major Arterial,43.783345,-79.48669,Mid-Block,No Control,Clear,Dark,Dry,Non-Fatal Injury,Driver,25 to 29,27,None,"Automobile, Station Wagon",Driving Properly,Normal,No,No,Yes,No,No,No,No,Yes,Yes,No,Yes,No,27,York University Heights (27)
897456,2006/03/19 05:00:00+00,207,2,ST CLAIR AVE W,BLACKTHORN AVE,Major Arterial,43.674445,-79.45869,Intersection,No Control,Clear,Dark,Dry,Non-Fatal Injury,Passenger,25 to 29,27,Major,Other,Unknown,Unknown,No,No,Yes,No,No,No,No,Yes,Yes,No,No,No,91,Weston-Pellam Park (91)
898163,2006/03/19 05:00:00+00,1743,17,STEELES AVE E,WARDEN AVE,Major Arterial,43.819645,-79.32439000000002,Intersection,Traffic Signal,Clear,Daylight,Dry,Non-Fatal Injury,Driver,25 to 29,27,Major,"Automobile, Station Wagon",Driving Properly,Normal,No,No,Yes,No,No,No,No,No,Yes,Yes,No,No,116,Steeles (116)
893964,2006/03/20 05:00:00+00,755,7,941 PROGRESS AVE,Unknown,Minor Arterial,43.783845,-79.23179,Mid-Block,Traffic Signal,Clear,Daylight,Dry,Non-Fatal Injury,Driver,20 to 24,22,None,"Automobile, Station Wagon",Driving Properly,Normal,Yes,No,Yes,No,No,No,No,No,No,No,No,No,137,Woburn (137)
894030,2006/03/20 05:00:00+00,2100,21,BLACK CREEK DR,LAWRENCE AVE W,Major Arterial,43.704945,-79.49409,Intersection,Traffic Signal,Clear,Dark,Dry,Non-Fatal Injury,Passenger,20 to 24,22,Minimal,Other,Unknown,Unknown,No,No,Yes,No,No,No,No,No,Yes,No,No,No,30,Brookhaven-Amesbury (30)
894423,2006/03/22 05:00:00+00,1435,14,2423 KEELE ST,Unknown,Major Arterial,43.710645,-79.47849000000002,Mid-Block,No Control,Clear,Daylight,Dry,Non-Fatal Injury,Driver,50 to 54,52,None,"Automobile, Station Wagon",Driving Properly,Normal,No,No,Yes,No,No,No,No,No,No,No,No,Yes,29,Maple Leaf (29)
898778,2006/03/25 05:00:00+00,1139,11,WESTON RD,ROGERS RD,Major Arterial,43.68254500000001,-79.47799,Mid-Block,No Control,Rain,Daylight,Wet,Non-Fatal Injury,Vehicle Owner,unknown,unknown,None,Other,Unknown,Unknown,No,No,Yes,No,No,No,No,No,No,No,No,No,111,Rockcliffe-Smythe (111)
894735,2006/03/25 05:00:00+00,1850,18,910 DUNDAS ST E,Unknown,Minor Arterial,43.662845,-79.34979,Mid-Block,No Control,Rain,Dark,Wet,Non-Fatal Injury,Driver,unknown,unknown,None,"Automobile, Station Wagon",Failed to Yield Right of Way,Unknown,Yes,No,Yes,No,No,No,No,No,Yes,No,No,No,70,South Riverdale (70)
899126,2006/03/26 05:00:00+00,1614,16,CALEDONIA RD,NORMAN AVE,Minor Arterial,43.677745,-79.45579000000002,Intersection,No Control,Clear,Daylight,Dry,Non-Fatal Injury,Driver,35 to 39,37,Major,"Automobile, Station Wagon",Lost control,Had Been Drinking,No,No,Yes,No,No,No,No,No,No,No,No,No,92,Corso Italia-Davenport (92)
899369,2006/03/31 05:00:00+00,1640,16,BLOOR ST W,CHRISTIE ST,Major Arterial,43.663745,-79.41769000000002,Mid-Block,No Control,Clear,Daylight,Dry,Non-Fatal Injury,Driver,45 to 49,47,None,"Automobile, Station Wagon",Driving Properly,Normal,Yes,No,Yes,No,No,No,No,No,No,No,No,No,95,Annex (95)
899537,2006/04/01 05:00:00+00,2205,22,JANE ST,EGLINTON AVE W,Major Arterial,43.684445,-79.49879,Intersection,Traffic Signal,Clear,Dark,Dry,Non-Fatal Injury,Vehicle Owner,unknown,unknown,Unknown,Other,Unknown,Unknown,No,No,Yes,No,No,No,No,Yes,Yes,No,No,No,115,Mount Dennis (115)
895615,2006/04/01 05:00:00+00,2344,23,F G GARDINER XY E  E,SPADINA AVE,Major Arterial,43.638745,-79.39129,Mid-Block,No Control,Clear,Dark,Dry,Non-Fatal Injury,Driver,50 to 54,52,Minimal,"Automobile, Station Wagon",Driving Properly,Unknown,No,No,Yes,No,No,No,No,No,Yes,No,No,No,77,Waterfront Communities-The Island (77)
895818,2006/04/02 05:00:00+00,1717,17,DON MILLS RD,GATEWAY BLVD,Major Arterial,43.713045,-79.33579,Mid-Block,No Control,Clear,Daylight,Dry,Non-Fatal Injury,Driver,55 to 59,57,Major,"Automobile, Station Wagon",Lost control,Medical or Physical Disability,No,No,Yes,No,No,No,No,No,No,No,No,Yes,44,Flemingdon Park (44)
899747,2006/04/03 04:00:00+00,1615,16,DUNDAS ST W,BLOOR ST W,Major Arterial,43.656345,-79.45249,Intersection,Traffic Signal,Rain,Daylight,Wet,Non-Fatal Injury,Driver,50 to 54,52,None,"Automobile, Station Wagon",Driving Properly,Normal,Yes,No,Yes,No,No,No,No,No,No,No,No,No,88,High Park North (88)
895926,2006/04/04 04:00:00+00,230,2,1340 LESLIE ST,Unknown,Major Arterial,43.732745,-79.35559,Mid-Block,No Control,Clear,Dark,Dry,Non-Fatal Injury,Vehicle Owner,unknown,unknown,Unknown,Other,Unknown,Unknown,No,No,Yes,No,No,No,No,No,No,No,Yes,No,42,Banbury-Don Mills (42)
896072,2006/04/04 04:00:00+00,1325,13,WALMER RD,HEATH ST W,Collector,43.686545,-79.41319,Intersection,Stop Sign,Clear,Daylight,Dry,Non-Fatal Injury,Driver,60 to 64,62,None,"Automobile, Station Wagon",Other,Normal,Yes,No,Yes,No,No,No,No,No,No,No,No,No,101,Forest Hill South (101)
899910,2006/04/06 04:00:00+00,1540,15,BAY ST,GERRARD ST W,Major Arterial,43.658545,-79.38489,Intersection,Traffic Signal,Clear,Daylight,Dry,Non-Fatal Injury,Driver,45 to 49,47,None,"Automobile, Station Wagon",Driving Properly,Normal,No,Yes,Yes,No,No,No,No,No,No,No,No,No,76,Bay Street Corridor (76)
899914,2006/04/06 04:00:00+00,1825,18,232 VIEWMOUNT AVE,Unknown,Local,43.708045,-79.43919,Mid-Block,No Control,Clear,Daylight,Dry,Non-Fatal Injury,Driver,15 to 19,17,None,"Automobile, Station Wagon",Driving Properly,Normal,Yes,No,Yes,No,No,No,No,No,No,No,No,No,32,Englemount-Lawrence (32)
897350,2006/04/07 04:00:00+00,1555,15,KINGSTON RD,EGLINTON AVE E,Major Arterial,43.745745,-79.20959,Mid-Block,No Control,Rain,Daylight,Wet,Non-Fatal Injury,Vehicle Owner,unknown,unknown,None,Other,Unknown,Unknown,No,No,Yes,No,No,No,No,Yes,Yes,No,No,No,139,Scarborough Village (139)
900010,2006/04/08 04:00:00+00,1150,11,4559 SHEPPARD Aven E,Unknown,Major Arterial,43.788745,-79.26289,Mid-Block,No Control,Clear,Daylight,Dry,Non-Fatal Injury,Vehicle Owner,unknown,unknown,None,Other,Unknown,Unknown,No,No,No,Yes,No,No,No,No,No,No,No,No,128,Agincourt South-Malvern West (128)
900242,2006/04/10 04:00:00+00,1744,17,ADELAIDE ST E,FREDERICK ST,Major Arterial,43.651845,-79.36989,Intersection,Traffic Signal,Clear,Daylight,Dry,Non-Fatal Injury,Driver,55 to 59,57,None,"Automobile, Station Wagon",Driving Properly,Normal,No,No,Yes,Yes,No,No,No,No,Yes,No,No,No,73,Moss Park (73)
900284,2006/04/11 04:00:00+00,1530,15,EGLINTON AVE W,MARTIN GROVE RD,Major Arterial,43.674445,-79.56319,Intersection,Traffic Signal,Clear,Daylight,Dry,Non-Fatal Injury,Driver,45 to 49,47,None,"Automobile, Station Wagon",Following too Close,Normal,No,No,Yes,No,No,No,No,No,Yes,No,No,No,10,Princess-Rosethorn (10)
900285,2006/04/11 04:00:00+00,1620,16,KENNEDY RD,PROGRESS AVE,Major Arterial,43.769845,-79.28249,Mid-Block,No Control,Clear,Daylight,Dry,Non-Fatal Injury,Motorcycle Driver,40 to 44,42,Major,Motorcycle,Driving Properly,Normal,No,No,Yes,Yes,No,No,No,No,No,No,No,No,126,Dorset Park (126)
900307,2006/04/11 04:00:00+00,1853,18,RICHMOND ST E,ONTARIO ST,Major Arterial,43.653945,-79.36669,Intersection,Stop Sign,Clear,Daylight,Dry,Non-Fatal Injury,Driver,55 to 59,57,Minor,"Automobile, Station Wagon",Disobeyed Traffic Control,Normal,No,No,Yes,No,No,No,No,Yes,Yes,No,No,No,73,Moss Park (73)
897664,2006/04/15 04:00:00+00,2000,20,YONGE ST,BREADALBANE ST,Major Arterial,43.663745,-79.38409,Intersection,No Control,Clear,Dark,Dry,Fatal,Pedestrian,40 to 44,42,Fatal,Other,Unknown,Unknown,Yes,No,Yes,No,No,No,No,No,No,No,No,No,75,Church-Yonge Corridor (75)
901809,2006/04/18 04:00:00+00,10,1,FINCH AVE W,DRIFTWOOD AVE,Major Arterial,43.758545,-79.51119,Mid-Block,No Control,Clear,Dark,Dry,Non-Fatal Injury,Driver,45 to 49,47,Major,"Automobile, Station Wagon",Lost control,Normal,No,No,Yes,No,No,No,No,No,No,No,No,No,24,Black Creek (24)
897916,2006/04/18 04:00:00+00,1930,19,WARDEN AVE,COMSTOCK RD,Major Arterial,43.721545,-79.28499000000002,Intersection,Traffic Signal,Clear,Daylight,Dry,Fatal,Passenger,30 to 34,32,Fatal,Other,Unknown,Unknown,No,No,Yes,No,No,Yes,No,No,Yes,Yes,No,No,120,Clairlea-Birchmount (120)
902163,2006/04/19 04:00:00+00,1900,19,LAWRENCE AVE W,PIMLICO RD,Major Arterial,43.707545,-79.48239000000002,Intersection,Traffic Signal,Clear,Daylight,Dry,Non-Fatal Injury,Driver,30 to 34,32,None,"Automobile, Station Wagon",Failed to Yield Right of Way,Normal,Yes,No,Yes,No,No,No,No,No,Yes,No,No,No,29,Maple Leaf (29)
898340,2006/04/20 04:00:00+00,843,8,AVENUE RD,CORTLEIGH BLVD,Major Arterial,43.713045,-79.41179,Intersection,No Control,Clear,Daylight,Dry,Fatal,Cyclist,45 to 49,47,Fatal,Bicycle,Unknown,Unknown,No,Yes,No,No,Yes,No,No,No,No,No,No,No,103,Lawrence Park South (103)
898350,2006/04/20 04:00:00+00,2053,20,KEELE ST,FINCH AVE W,Major Arterial,43.763445,-79.49099,Intersection,Traffic Signal,Clear,Dark,Dry,Fatal,Cyclist,15 to 19,17,Fatal,Bicycle,Unknown,Unknown,No,Yes,No,No,Yes,No,No,No,No,No,No,No,27,York University Heights (27)
898555,2006/04/23 04:00:00+00,950,9,MCCOWAN RD,ELLESMERE RD,Major Arterial,43.772145,-79.25149,Intersection,Traffic Signal,Rain,Daylight,Wet,Non-Fatal Injury,Passenger,75 to 79,77,Major,Other,Unknown,Unknown,No,No,Yes,No,No,No,No,Yes,Yes,No,No,No,137,Woburn (137)
898801,2006/04/25 04:00:00+00,119,1,MILNER AVE,AUTO MALL DR,Minor Arterial,43.799545,-79.19169000000002,Intersection,No Control,Clear,Dark,Dry,Non-Fatal Injury,Passenger,20 to 24,22,Minimal,Other,Unknown,Unknown,No,No,Yes,No,No,No,No,No,No,No,No,No,131,Rouge (131)
912860,2006/04/25 04:00:00+00,119,1,MILNER AVE,AUTO MALL DR,Minor Arterial,43.800045,-79.19079,Mid-Block,No Control,Clear,Dark,Dry,Non-Fatal Injury,Passenger,25 to 29,27,Major,Other,Unknown,Unknown,No,No,Yes,No,No,No,No,Yes,Yes,No,Yes,No,131,Rouge (131)
902863,2006/04/25 04:00:00+00,800,8,BLOOR ST W,SYMINGTON AVE,Major Arterial,43.657244,-79.447788,Intersection,Traffic Signal,Rain,Daylight,Wet,Non-Fatal Injury,Vehicle Owner,unknown,unknown,Unknown,Unknown,Unknown,Unknown,No,Yes,Yes,No,No,No,No,No,No,No,No,No,83,Dufferin Grove (83)
899004,2006/04/25 04:00:00+00,1630,16,40 STORMONT AVE,Unknown,Local,43.719345,-79.42529,Mid-Block,No Control,Clear,Daylight,Dry,Non-Fatal Injury,Vehicle Owner,unknown,unknown,None,Other,Unknown,Unknown,Yes,No,Yes,No,No,No,No,No,No,No,No,No,39,Bedford Park-Nortown (39)
903074,2006/04/26 04:00:00+00,920,9,KINGSTON RD,WARDEN AVE,Major Arterial,43.687745,-79.27089000000002,Intersection,Traffic Signal,Clear,Daylight,Dry,Non-Fatal Injury,Driver,75 to 79,77,None,"Automobile, Station Wagon",Failed to Yield Right of Way,Inattentive,Yes,No,Yes,No,No,No,No,No,Yes,No,No,No,122,Birchcliffe-Cliffside (122)
903114,2006/04/27 04:00:00+00,2044,20,THE QUEENSWAY,NORTH QUEEN ST,Major Arterial,43.614245,-79.55619,Intersection,Traffic Signal,Clear,Dark,Dry,Non-Fatal Injury,Passenger,15 to 19,17,Major,Other,Unknown,Unknown,No,No,Yes,No,No,No,No,No,No,No,No,No,14,Islington-City Centre West (14)
903348,2006/04/28 04:00:00+00,1310,13,EGLINTON AVE W,OLD FOREST HILL RD,Major Arterial,43.701545,-79.42309,Intersection,Traffic Signal,Clear,Daylight,Dry,Non-Fatal Injury,Driver,70 to 74,72,None,"Automobile, Station Wagon",Improper Turn,Normal,No,No,Yes,Yes,No,No,No,No,No,No,No,No,102,Forest Hill North (102)
939781,2006/04/28 04:00:00+00,2349,23,BLOOR ST W,DUFFERIN ST,Major Arterial,43.659945,-79.43499,Mid-Block,No Control,Clear,Dark,Dry,Non-Fatal Injury,Driver,25 to 29,27,None,"Automobile, Station Wagon",Driving Properly,Normal,No,Yes,Yes,No,No,No,No,Yes,Yes,No,No,No,83,Dufferin Grove (83)
900117,2006/04/29 04:00:00+00,1521,15,DOUGLAS BLVD,LAKE SHORE BLVD W,Local,43.610362,-79.488437,Mid-Block,No Control,Clear,Daylight,Dry,Non-Fatal Injury,Motorcycle Driver,20 to 24,22,Major,Motorcycle,Lost control,Normal,No,No,No,Yes,No,No,No,No,No,No,No,No,17,Mimico (includes Humber Bay Shores) (17)
900120,2006/04/29 04:00:00+00,2136,21,MILLWICK DR,MILVAN DR,Collector,43.758145,-79.55959,Mid-Block,No Control,Clear,Dark,Dry,Fatal,Passenger,40 to 44,42,Fatal,Other,Unknown,Unknown,No,No,Yes,No,No,No,No,Yes,Yes,No,No,No,21,Humber Summit (21)
900159,2006/04/30 04:00:00+00,857,8,QUEEN ST E,FALLINGBROOK RD,Collector,43.675345,-79.27639,Intersection,Stop Sign,Clear,Daylight,Dry,Fatal,Driver,55 to 59,57,Fatal,"Automobile, Station Wagon",Speed too Fast For Condition,Unknown,No,No,Yes,No,No,No,No,Yes,Yes,No,No,No,122,Birchcliffe-Cliffside (122)
903432,2006/05/01 04:00:00+00,1610,16,96 NYMARK AVE,Unknown,Collector,43.781745,-79.35849,Mid-Block,No Control,Clear,Daylight,Dry,Non-Fatal Injury,Driver,35 to 39,37,Major,"Automobile, Station Wagon",Improper Passing,Normal,No,No,Yes,No,No,No,No,Yes,Yes,No,No,No,47,Don Valley Village (47)
903839,2006/05/01 04:00:00+00,1900,19,BLACK CREEK DR,TRETHEWEY DR,Major Arterial,43.695245,-79.48649,Mid-Block,No Control,Clear,Daylight,Dry,Non-Fatal Injury,Driver,40 to 44,42,Major,"Automobile, Station Wagon",Lost control,Normal,No,No,Yes,No,No,No,No,No,No,No,No,No,112,Beechborough-Greenbrook (112)
903913,2006/05/02 04:00:00+00,1335,13,OLD FINCH AVE,SEWELLS RD,Collector,43.824245,-79.19339000000002,Mid-Block,No Control,Clear,Daylight,Dry,Non-Fatal Injury,Driver,20 to 24,22,None,"Automobile, Station Wagon",Disobeyed Traffic Control,Normal,No,No,Yes,Yes,No,No,No,Yes,Yes,No,No,No,131,Rouge (131)
902826,2006/05/03 04:00:00+00,900,9,BATHURST ST,BLOOR ST W,Major Arterial,43.665445,-79.41139,Mid-Block,No Control,Clear,Daylight,Dry,Non-Fatal Injury,Driver,unknown,unknown,None,"Automobile, Station Wagon",Other,Unknown,No,Yes,Yes,No,No,No,No,No,No,No,No,No,95,Annex (95)
900756,2006/05/03 04:00:00+00,1032,10,DUNDAS ST W,SHAW ST,Major Arterial,43.649845,-79.41829,Intersection,Traffic Signal,Clear,Daylight,Dry,Fatal,Pedestrian,70 to 74,72,Fatal,Other,Unknown,Unknown,Yes,No,Yes,No,No,No,No,No,Yes,No,No,No,81,Trinity-Bellwoods (81)
904912,2006/05/03 04:00:00+00,1400,14,YONGE ST,FINCH AVE E,Major Arterial,43.779745,-79.41559000000002,Intersection,Traffic Signal,Clear,Daylight,Dry,Non-Fatal Injury,Driver,30 to 34,32,None,"Automobile, Station Wagon",Driving Properly,Normal,No,No,Yes,No,No,No,No,No,Yes,Yes,No,No,51,Willowdale East (51)
904107,2006/05/03 04:00:00+00,1520,15,MARKHAM RD,SHEPPARD AVE E,Major Arterial,43.79384500000001,-79.23879000000002,Intersection,Traffic Signal,Clear,Daylight,Dry,Non-Fatal Injury,Driver,40 to 44,42,Major,"Automobile, Station Wagon",Other,Medical or Physical Disability,No,No,Yes,No,No,No,No,No,No,No,No,Yes,132,Malvern (132)
904105,2006/05/03 04:00:00+00,1842,18,GREENWOOD AVE,WALPOLE AVE,Minor Arterial,43.675245,-79.32979,Mid-Block,No Control,Clear,Daylight,Dry,Non-Fatal Injury,Passenger,35 to 39,37,Major,Other,Unknown,Unknown,No,No,Yes,No,No,No,No,No,No,No,No,No,65,Greenwood-Coxwell (65)
904367,2006/05/05 04:00:00+00,36,3,KEELE ST,YORK BLVD,Major Arterial,43.775245,-79.49399,Intersection,Traffic Signal,Clear,Dark,Dry,Non-Fatal Injury,Passenger,15 to 19,17,Major,Other,Unknown,Unknown,No,No,Yes,No,No,No,No,No,Yes,No,No,No,27,York University Heights (27)
904251,2006/05/05 04:00:00+00,1150,11,QUEEN ST W,YORK ST,Major Arterial,43.651245,-79.38499,Intersection,Traffic Signal,Clear,Daylight,Dry,Non-Fatal Injury,Driver,30 to 34,32,None,"Automobile, Station Wagon",Driving Properly,Normal,Yes,No,Yes,No,No,No,No,No,No,No,No,No,76,Bay Street Corridor (76)
957730,2007/02/06 05:00:00+00,655,6,SOUTH KINGSWAY,QUEENSWAY S KINGSWAY RAMP,Minor Arterial,43.636145,-79.47449,Intersection,Stop Sign,Clear,Dark,Slush,Non-Fatal Injury,Driver,55 to 59,57,Major,"Automobile, Station Wagon",Driving Properly,Normal,No,No,Yes,No,No,No,No,No,Yes,No,No,No,87,High Park-Swansea (87)
951700,2007/02/06 05:00:00+00,800,8,LAKE SHORE BLVD W,BRITISH COLUMBIA RD,Major Arterial,43.630645,-79.42739,Mid-Block,No Control,Clear,Daylight,Loose Snow,Non-Fatal Injury,Driver,50 to 54,52,Major,"Automobile, Station Wagon",Lost control,Normal,No,No,Yes,No,No,No,No,No,No,No,No,No,82,Niagara (82)
958325,2007/02/06 05:00:00+00,1520,15,VICTORIA PARK AVE,MORECAMBE GT,Major Arterial,43.798045,-79.33359,Intersection,Traffic Signal,Clear,Daylight,Dry,Non-Fatal Injury,Vehicle Owner,unknown,unknown,None,Other,Unknown,Unknown,Yes,No,Yes,No,No,No,No,No,Yes,No,No,No,117,L'Amoreaux (117)
957751,2007/02/06 05:00:00+00,1939,19,EGLINTON AVE W,BLACK CREEK DR,Major Arterial,43.688345,-79.48289,Intersection,Traffic Signal,Clear,Dark,Dry,Non-Fatal Injury,Driver,70 to 74,72,Minor,"Automobile, Station Wagon",Driving Properly,Normal,No,No,Yes,No,No,No,No,No,Yes,No,No,No,110,Keelesdale-Eglinton West (110)
930852,2006/10/01 04:00:00+00,1540,15,BIRCHMOUNT RD,EGLINTON AVE E,Major Arterial,43.732145,-79.27859000000002,Mid-Block,No Control,Clear,Daylight,Dry,Non-Fatal Injury,Driver,85 to 89,87,None,"Automobile, Station Wagon",Driving Properly,Normal,No,No,Yes,No,No,No,No,No,No,No,No,No,125,Ionview (125)
958067,2007/02/07 05:00:00+00,750,7,5714 YONGE ST,Unknown,Major Arterial,43.782069,-79.416087,Mid-Block,No Control,Clear,Daylight,Dry,Non-Fatal Injury,Vehicle Owner,unknown,unknown,Unknown,Unknown,Unknown,Unknown,Yes,No,No,No,No,Yes,No,No,Yes,No,No,No,50,Newtonbrook East (50)
967550,2007/03/27 04:00:00+00,1550,15,BAY ST,YORKVILLE AVE,Major Arterial,43.671545,-79.39029000000002,Mid-Block,No Control,Clear,Daylight,Dry,Non-Fatal Injury,Driver,35 to 39,37,Major,"Automobile, Station Wagon",Improper Lane Change,Other,No,No,Yes,No,Yes,No,No,No,No,No,No,No,95,Annex (95)
951917,2007/02/07 05:00:00+00,1521,15,114 LA ROSE AVE,Unknown,Collector,43.685645,-79.52069,Mid-Block,No Control,Clear,Daylight,Dry,Non-Fatal Injury,Pedestrian,85 to 89,87,Major,Other,Unknown,Unknown,Yes,No,Yes,No,No,No,No,No,No,No,No,No,8,Humber Heights-Westmount (8)
958350,2007/02/08 05:00:00+00,920,9,CROCKFORD BLVD,BERTRAND AVE,Collector,43.733845,-79.28599,Intersection,No Control,Clear,Daylight,Dry,Non-Fatal Injury,Vehicle Owner,unknown,unknown,Unknown,Other,Unknown,Unknown,No,No,Yes,No,No,No,No,No,Yes,No,No,No,119,Wexford/Maryvale (119)
958123,2007/02/08 05:00:00+00,1038,10,DUFFERIN ST,SYLVAN AVE,Major Arterial,43.654645,-79.43339,Intersection,No Control,Clear,Daylight,Dry,Non-Fatal Injury,Driver,35 to 39,37,None,"Automobile, Station Wagon",Driving Properly,Normal,Yes,No,Yes,No,No,No,No,No,No,No,No,No,83,Dufferin Grove (83)
935384,2006/10/18 04:00:00+00,637,6,MCCOWAN RD,BUSHBY DR,Major Arterial,43.774545,-79.25219,Intersection,Traffic Signal,Clear,Dawn,Dry,Non-Fatal Injury,Driver,20 to 24,22,Minimal,"Automobile, Station Wagon",Failed to Yield Right of Way,Inattentive,Yes,No,Yes,No,No,No,No,No,Yes,No,No,No,137,Woburn (137)
952125,2007/02/08 05:00:00+00,2000,20,621 ROYAL YORK Road,Unknown,Minor Arterial,43.628345,-79.50329,Unknown,No Control,Clear,Dark,Dry,Non-Fatal Injury,Vehicle Owner,unknown,unknown,None,Other,Unknown,Unknown,No,No,Yes,No,No,No,No,No,No,No,No,No,16,Stonegate-Queensway (16)
952260,2007/02/09 05:00:00+00,900,9,ST CLAIR AVE E,BIRCHMOUNT RD,Major Arterial,43.715145,-79.26729,Mid-Block,No Control,Clear,Daylight,Dry,Non-Fatal Injury,Vehicle Owner,unknown,unknown,None,Other,Unknown,Unknown,No,No,Yes,No,No,No,No,No,Yes,No,No,No,124,Kennedy Park (124)
974158,2007/02/10 05:00:00+00,52,5,OSSINGTON AVE,CHURCHILL AVE,Minor Arterial,43.651945,-79.42179,Intersection,Traffic Signal,Clear,Dark,Dry,Non-Fatal Injury,Pedestrian,10 to 14,12,Major,Other,Unknown,Unknown,Yes,No,Yes,No,No,No,No,Yes,Yes,No,No,No,81,Trinity-Bellwoods (81)
952529,2007/02/11 05:00:00+00,202,2,KIPLING AVE,ADVANCE RD,Major Arterial,43.632645,-79.53159000000002,Mid-Block,No Control,Clear,Dark,Dry,Fatal,Pedestrian,15 to 19,17,Fatal,Other,Unknown,Unknown,Yes,No,Yes,No,No,No,No,Yes,Yes,No,Yes,No,14,Islington-City Centre West (14)
959650,2007/02/12 05:00:00+00,112,1,NEILSON RD,FINCH AVE E,Collector,43.817045,-79.22799,Mid-Block,No Control,Clear,Dark,Dry,Non-Fatal Injury,Driver,50 to 54,52,Major,"Automobile, Station Wagon",Lost control,Unknown,No,No,Yes,No,No,No,No,No,No,No,No,No,131,Rouge (131)
976566,2007/02/12 05:00:00+00,850,8,BRIMLEY RD,PITFIELD RD,Major Arterial,43.783445,-79.26639,Intersection,Traffic Signal,Snow,Daylight,Loose Snow,Non-Fatal Injury,Driver,unknown,unknown,None,"Automobile, Station Wagon",Driving Properly,Normal,No,Yes,Yes,No,No,No,No,No,No,No,No,No,128,Agincourt South-Malvern West (128)
958900,2007/02/13 05:00:00+00,915,9,ST CLAIR Aven W,KEELE Stre,Major Arterial,43.672845,-79.46599,Mid-Block,No Control,Clear,Daylight,Dry,Non-Fatal Injury,Vehicle Owner,unknown,unknown,None,Other,Unknown,Unknown,No,No,No,No,Yes,No,No,No,No,No,No,No,90,Junction Area (90)
953178,2007/02/14 05:00:00+00,700,7,MCNICOLL AVE,WARDEN AVE,Minor Arterial,43.80604500000001,-79.32219,Mid-Block,No Control,Snow,Dark,Packed Snow,Fatal,Pedestrian,30 to 34,32,Fatal,Other,Unknown,Unknown,Yes,No,Yes,No,No,No,No,Yes,Yes,No,No,No,116,Steeles (116)
958999,2007/02/14 05:00:00+00,1305,13,THE QUEENSWAY,THE EAST MALL,Major Arterial,43.616445,-79.54629,Intersection,Traffic Signal,Snow,Daylight,Loose Snow,Non-Fatal Injury,Driver,25 to 29,27,None,"Automobile, Station Wagon",Speed too Fast For Condition,Normal,No,No,Yes,No,Yes,No,No,Yes,Yes,No,No,No,14,Islington-City Centre West (14)
953726,2007/02/15 05:00:00+00,1445,14,EGLINTON AVE W,KIPLING AVE,Major Arterial,43.677345,-79.54989,Mid-Block,No Control,Clear,Daylight,Other,Non-Fatal Injury,Passenger,40 to 44,42,Major,Other,Unknown,Unknown,No,No,Yes,No,No,No,No,No,Yes,No,No,No,10,Princess-Rosethorn (10)
959236,2007/02/15 05:00:00+00,1531,15,JANE ST,WOOLNER AVE,Major Arterial,43.671645,-79.49369,Intersection,Traffic Signal,Clear,Daylight,Dry,Non-Fatal Injury,Driver,20 to 24,22,None,"Automobile, Station Wagon",Improper Turn,Normal,Yes,No,Yes,No,No,No,No,No,No,No,No,No,111,Rockcliffe-Smythe (111)
953931,2007/02/16 05:00:00+00,2008,20,LAKE SHORE BLVD W,NEWFOUNDLAND RD,Major Arterial,43.632445,-79.41079,Intersection,Traffic Signal,Clear,Dark,Dry,Non-Fatal Injury,Passenger,35 to 39,37,Minor,"Automobile, Station Wagon",Unknown,Unknown,No,No,Yes,No,No,No,No,No,Yes,Yes,No,No,82,Niagara (82)
956470,2007/02/16 05:00:00+00,2305,23,4400 DUFFERIN Stre,Unknown,Major Arterial,43.765445,-79.46619,Mid-Block,Traffic Signal,Clear,Dark,Wet,Non-Fatal Injury,Vehicle Owner,unknown,unknown,None,Other,Unknown,Unknown,No,No,Yes,No,No,No,No,No,Yes,Yes,No,No,34,Bathurst Manor (34)
